[
  {
    "station_id": "1",
    "status": "IN_SERVICE",
    "num_bikes_available": 12,
    "num_docks_available": 32,
    "name": "GRAN VIA CORTS CATALANES, 760",
    "post_code": "08013",
    "lat": 41.3979779,
    "lng": 2.1801069,
    "district": "Eixample",
    "district_code": "02",
    "suburb": "el Fort Pienc",
    "suburb_code": "05"
  },
  {
    "station_id": "2",
    "status": "IN_SERVICE",
    "num_bikes_available": 9,
    "num_docks_available": 19,
    "name": "C/ ROGER DE FLOR, 126",
    "post_code": "08013",
    "lat": 41.3954877,
    "lng": 2.1771985,
    "district": "Eixample",
    "district_code": "02",
    "suburb": "el Fort Pienc",
    "suburb_code": "05"
  },
  {
    "station_id": "3",
    "status": "IN_SERVICE",
    "num_bikes_available": 25,
    "num_docks_available": 2,
    "name": "C/ Nu00c0POLS, 82",
    "post_code": "08013",
    "lat": 41.3941557,
    "lng": 2.1813305,
    "district": "Eixample",
    "district_code": "02",
    "suburb": "el Fort Pienc",
    "suburb_code": "05"
  },
  {
    "station_id": "4",
    "status": "IN_SERVICE",
    "num_bikes_available": 3,
    "num_docks_available": 9,
    "name": "C/ RIBES, 13",
    "post_code": "08013",
    "lat": 41.3933173,
    "lng": 2.1812483,
    "district": "Eixample",
    "district_code": "02",
    "suburb": "el Fort Pienc",
    "suburb_code": "05"
  },
  {
    "station_id": "5",
    "status": "IN_SERVICE",
    "num_bikes_available": 28,
    "num_docks_available": 9,
    "name": "PG. LLUIS COMPANYS, 11 (ARC TRIOMF)",
    "post_code": "08018",
    "lat": 41.3911035,
    "lng": 2.1801763,
    "district": "Ciutat Vella",
    "district_code": "01",
    "suburb": "Sant Pere, Santa Caterina i la Ribera",
    "suburb_code": "04"
  },
  {
    "station_id": "6",
    "status": "IN_SERVICE",
    "num_bikes_available": 13,
    "num_docks_available": 25,
    "name": "PG. LLUIS COMPANYS, 18 (ARC TRIOMF)",
    "post_code": "08018",
    "lat": 41.3914292,
    "lng": 2.1805685,
    "district": "Ciutat Vella",
    "district_code": "01",
    "suburb": "Sant Pere, Santa Caterina i la Ribera",
    "suburb_code": "04"
  },
  {
    "station_id": "7",
    "status": "IN_SERVICE",
    "num_bikes_available": 11,
    "num_docks_available": 14,
    "name": "PG. PUJADES,  1 (JUTJATS)",
    "post_code": "08003",
    "lat": 41.388885,
    "lng": 2.18329,
    "district": "Ciutat Vella",
    "district_code": "01",
    "suburb": "Sant Pere, Santa Caterina i la Ribera",
    "suburb_code": "04"
  },
  {
    "station_id": "8",
    "status": "IN_SERVICE",
    "num_bikes_available": 8,
    "num_docks_available": 19,
    "name": "PG. PUJADES, 2",
    "post_code": "08003",
    "lat": 41.389135,
    "lng": 2.183489,
    "district": "Ciutat Vella",
    "district_code": "01",
    "suburb": "Sant Pere, Santa Caterina i la Ribera",
    "suburb_code": "04"
  },
  {
    "station_id": "9",
    "status": "IN_SERVICE",
    "num_bikes_available": 4,
    "num_docks_available": 22,
    "name": "AV. MARQUu00c9S DE L'ARGENTERA,13",
    "post_code": "08003",
    "lat": 41.384546,
    "lng": 2.184922,
    "district": "Ciutat Vella",
    "district_code": "01",
    "suburb": "Sant Pere, Santa Caterina i la Ribera",
    "suburb_code": "04"
  },
  {
    "station_id": "10",
    "status": "IN_SERVICE",
    "num_bikes_available": 18,
    "num_docks_available": 25,
    "name": "C/ 60, Nu00daMERO 25",
    "post_code": "08040",
    "lat": 41.3467746,
    "lng": 2.1436235,
    "district": "Sants-Montjuu00efc",
    "district_code": "03",
    "suburb": "la Marina del Prat Vermell",
    "suburb_code": "12"
  },
  {
    "station_id": "11",
    "status": "IN_SERVICE",
    "num_bikes_available": 7,
    "num_docks_available": 23,
    "name": "PG. MARITIM, 11 (DAVANT PL. BRUGADA)",
    "post_code": "08003",
    "lat": 41.3812425,
    "lng": 2.1933482,
    "district": "Ciutat Vella",
    "district_code": "01",
    "suburb": "la Barceloneta",
    "suburb_code": "03"
  },
  {
    "station_id": "12",
    "status": "EMPTY",
    "num_bikes_available": 0,
    "num_docks_available": 26,
    "name": "PG. MARITIM, 23 (HOSPITAL DEL MAR)",
    "post_code": "08003",
    "lat": 41.3833653,
    "lng": 2.1946255,
    "district": "Ciutat Vella",
    "district_code": "01",
    "suburb": "la Barceloneta",
    "suburb_code": "03"
  },
  {
    "station_id": "13",
    "status": "IN_SERVICE",
    "num_bikes_available": 22,
    "num_docks_available": 28,
    "name": "C/ MARINA, 25-33",
    "post_code": "08005",
    "lat": 41.388143,
    "lng": 2.195551,
    "district": "Sant Martu00ed",
    "district_code": "10",
    "suburb": "la Vila Olu00edmpica del Poblenou",
    "suburb_code": "67"
  },
  {
    "station_id": "14",
    "status": "IN_SERVICE",
    "num_bikes_available": 6,
    "num_docks_available": 20,
    "name": "AV. MARQUu00c9S DE  L'ARGENTERA, 15",
    "post_code": "08003",
    "lat": 41.384844,
    "lng": 2.185085,
    "district": "Ciutat Vella",
    "district_code": "01",
    "suburb": "Sant Pere, Santa Caterina i la Ribera",
    "suburb_code": "04"
  },
  {
    "station_id": "15",
    "status": "IN_SERVICE",
    "num_bikes_available": 1,
    "num_docks_available": 23,
    "name": "C/ DIPUTACIu00d3, 272",
    "post_code": "08009",
    "lat": 41.3916117009,
    "lng": 2.1689031979,
    "district": "Eixample",
    "district_code": "02",
    "suburb": "la Dreta de l'Eixample",
    "suburb_code": "07"
  },
  {
    "station_id": "17",
    "status": "IN_SERVICE",
    "num_bikes_available": 17,
    "num_docks_available": 22,
    "name": "AV. MERIDIANA, 47 (D)",
    "post_code": "08013",
    "lat": 41.3982615,
    "lng": 2.1866517,
    "district": "Eixample",
    "district_code": "02",
    "suburb": "el Fort Pienc",
    "suburb_code": "05"
  },
  {
    "station_id": "18",
    "status": "IN_SERVICE",
    "num_bikes_available": 12,
    "num_docks_available": 14,
    "name": "C/ ROSSELLu00d3, 453",
    "post_code": "08025",
    "lat": 41.4060589,
    "lng": 2.1740472,
    "district": "Eixample",
    "district_code": "02",
    "suburb": "la Sagrada Famu00edlia",
    "suburb_code": "06"
  },
  {
    "station_id": "19",
    "status": "IN_SERVICE",
    "num_bikes_available": 8,
    "num_docks_available": 18,
    "name": "C/ ROSSELLu00d3, 354",
    "post_code": "08025",
    "lat": 41.4031491,
    "lng": 2.1707947,
    "district": "Eixample",
    "district_code": "02",
    "suburb": "la Sagrada Famu00edlia",
    "suburb_code": "06"
  },
  {
    "station_id": "20",
    "status": "IN_SERVICE",
    "num_bikes_available": 11,
    "num_docks_available": 5,
    "name": "C/ CARTAGENA, 308",
    "post_code": "08025",
    "lat": 41.410314,
    "lng": 2.1757334,
    "district": "Eixample",
    "district_code": "02",
    "suburb": "la Sagrada Famu00edlia",
    "suburb_code": "06"
  },
  {
    "station_id": "21",
    "status": "IN_SERVICE",
    "num_bikes_available": 1,
    "num_docks_available": 16,
    "name": "C/ SANT ANTONI MARIA CLARET, 214",
    "post_code": "08025",
    "lat": 41.4108439,
    "lng": 2.1740575,
    "district": "Eixample",
    "district_code": "02",
    "suburb": "la Sagrada Famu00edlia",
    "suburb_code": "06"
  },
  {
    "station_id": "22",
    "status": "IN_SERVICE",
    "num_bikes_available": 3,
    "num_docks_available": 2,
    "name": "C/ SARDENYA, 292",
    "post_code": "08013",
    "lat": 41.4016969,
    "lng": 2.175767,
    "district": "Eixample",
    "district_code": "02",
    "suburb": "la Sagrada Famu00edlia",
    "suburb_code": "06"
  },
  {
    "station_id": "23",
    "status": "IN_SERVICE",
    "num_bikes_available": 3,
    "num_docks_available": 22,
    "name": "C/ BRUC, 45",
    "post_code": "08010",
    "lat": 41.3924661,
    "lng": 2.1717397,
    "district": "Eixample",
    "district_code": "02",
    "suburb": "la Dreta de l'Eixample",
    "suburb_code": "07"
  },
  {
    "station_id": "24",
    "status": "IN_SERVICE",
    "num_bikes_available": 13,
    "num_docks_available": 24,
    "name": "C/ MARINA, 199",
    "post_code": "08013",
    "lat": 41.4005784,
    "lng": 2.1788855,
    "district": "Eixample",
    "district_code": "02",
    "suburb": "el Fort Pienc",
    "suburb_code": "05"
  },
  {
    "station_id": "25",
    "status": "IN_SERVICE",
    "num_bikes_available": 1,
    "num_docks_available": 19,
    "name": "C/ BRUC, 102",
    "post_code": "08009",
    "lat": 41.3954041,
    "lng": 2.1681961,
    "district": "Eixample",
    "district_code": "02",
    "suburb": "la Dreta de l'Eixample",
    "suburb_code": "07"
  },
  {
    "station_id": "26",
    "status": "IN_SERVICE",
    "num_bikes_available": 6,
    "num_docks_available": 8,
    "name": "C/ DOS DE MAIG, 230-232",
    "post_code": "08013",
    "lat": 41.4071692,
    "lng": 2.1820722,
    "district": "Sant Martu00ed",
    "district_code": "10",
    "suburb": "el Camp de l'Arpa del Clot",
    "suburb_code": "64"
  },
  {
    "station_id": "27",
    "status": "IN_SERVICE",
    "num_bikes_available": 6,
    "num_docks_available": 12,
    "name": "C/ PROVENu00c7A, 322",
    "post_code": "08037",
    "lat": 41.3967524,
    "lng": 2.1646338,
    "district": "Eixample",
    "district_code": "02",
    "suburb": "la Dreta de l'Eixample",
    "suburb_code": "07"
  },
  {
    "station_id": "28",
    "status": "IN_SERVICE",
    "num_bikes_available": 8,
    "num_docks_available": 14,
    "name": "C/ SARDENYA, 362",
    "post_code": "08025",
    "lat": 41.4055143,
    "lng": 2.1706498,
    "district": "Eixample",
    "district_code": "02",
    "suburb": "la Sagrada Famu00edlia",
    "suburb_code": "06"
  },
  {
    "station_id": "29",
    "status": "IN_SERVICE",
    "num_bikes_available": 8,
    "num_docks_available": 8,
    "name": "C/ PROVENu00c7A, 388-390",
    "post_code": "08025",
    "lat": 41.401061,
    "lng": 2.169941,
    "district": "Eixample",
    "district_code": "02",
    "suburb": "la Dreta de l'Eixample",
    "suburb_code": "07"
  },
  {
    "station_id": "30",
    "status": "IN_SERVICE",
    "num_bikes_available": 4,
    "num_docks_available": 22,
    "name": "C/ CASTILLEJOS, 184",
    "post_code": "08013",
    "lat": 41.4021805,
    "lng": 2.1829894,
    "district": "Eixample",
    "district_code": "02",
    "suburb": "el Fort Pienc",
    "suburb_code": "05"
  },
  {
    "station_id": "31",
    "status": "IN_SERVICE",
    "num_bikes_available": 1,
    "num_docks_available": 14,
    "name": "PL. DEL MAR",
    "post_code": "08003",
    "lat": 41.3748001,
    "lng": 2.1889045,
    "district": "Ciutat Vella",
    "district_code": "01",
    "suburb": "la Barceloneta",
    "suburb_code": "03"
  },
  {
    "station_id": "32",
    "status": "IN_SERVICE",
    "num_bikes_available": 2,
    "num_docks_available": 11,
    "name": "LA BARCELONETA (CN BARCELONETA)",
    "post_code": "08003",
    "lat": 41.3736911,
    "lng": 2.188928,
    "district": "Ciutat Vella",
    "district_code": "01",
    "suburb": "la Barceloneta",
    "suburb_code": "03"
  },
  {
    "station_id": "33",
    "status": "IN_SERVICE",
    "num_bikes_available": 10,
    "num_docks_available": 9,
    "name": "C/ PONTEVEDRA, 58B | C/ JUDICI",
    "post_code": "08003",
    "lat": 41.37686,
    "lng": 2.19067,
    "district": "Ciutat Vella",
    "district_code": "01",
    "suburb": "la Barceloneta",
    "suburb_code": "03"
  },
  {
    "station_id": "34",
    "status": "IN_SERVICE",
    "num_bikes_available": 14,
    "num_docks_available": 3,
    "name": "C/ SANT PERE Mu00c9S ALT, 4",
    "post_code": "08003",
    "lat": 41.3871079,
    "lng": 2.1753364,
    "district": "Ciutat Vella",
    "district_code": "01",
    "suburb": "Sant Pere, Santa Caterina i la Ribera",
    "suburb_code": "04"
  },
  {
    "station_id": "35",
    "status": "IN_SERVICE",
    "num_bikes_available": 16,
    "num_docks_available": 34,
    "name": "C/ SANT RAMON DE PENYAFORT, 1",
    "post_code": "08930",
    "lat": 41.4134833,
    "lng": 2.2206913,
    "district": "Sant Martu00ed",
    "district_code": "10",
    "suburb": "el Besu00f2s i el Maresme",
    "suburb_code": "70"
  },
  {
    "station_id": "36",
    "status": "FULL",
    "num_bikes_available": 19,
    "num_docks_available": 0,
    "name": "AV. DE LA CATEDRAL, 6",
    "post_code": "08002",
    "lat": 41.3850616,
    "lng": 2.1766834,
    "district": "Ciutat Vella",
    "district_code": "01",
    "suburb": "el Barri Gu00f2tic",
    "suburb_code": "02"
  },
  {
    "station_id": "37",
    "status": "IN_SERVICE",
    "num_bikes_available": 13,
    "num_docks_available": 9,
    "name": "PG. DE COLOM - VIA LAIETANA",
    "post_code": "08002",
    "lat": 41.380624,
    "lng": 2.1820675,
    "district": "Ciutat Vella",
    "district_code": "01",
    "suburb": "el Barri Gu00f2tic",
    "suburb_code": "02"
  },
  {
    "station_id": "39",
    "status": "IN_SERVICE",
    "num_bikes_available": 14,
    "num_docks_available": 25,
    "name": "PL. PAU VILA (D)",
    "post_code": "08039",
    "lat": 41.381046,
    "lng": 2.186576,
    "district": "Ciutat Vella",
    "district_code": "01",
    "suburb": "la Barceloneta",
    "suburb_code": "03"
  },
  {
    "station_id": "40",
    "status": "IN_SERVICE",
    "num_bikes_available": 5,
    "num_docks_available": 12,
    "name": "C/ DOCTOR AIGUADER, 2",
    "post_code": "08039",
    "lat": 41.382335,
    "lng": 2.187093,
    "district": "Ciutat Vella",
    "district_code": "01",
    "suburb": "la Barceloneta",
    "suburb_code": "03"
  },
  {
    "station_id": "41",
    "status": "IN_SERVICE",
    "num_bikes_available": 16,
    "num_docks_available": 6,
    "name": "PL. POETA BOSCu00c0 | C/ ATLu00c0NTIDA",
    "post_code": "08003",
    "lat": 41.379326,
    "lng": 2.189906,
    "district": "Ciutat Vella",
    "district_code": "01",
    "suburb": "la Barceloneta",
    "suburb_code": "03"
  },
  {
    "station_id": "42",
    "status": "IN_SERVICE",
    "num_bikes_available": 3,
    "num_docks_available": 15,
    "name": "C/ CIUTAT DE GRANADA, 168 | AV. DIAGONAL",
    "post_code": "08018",
    "lat": 41.404511,
    "lng": 2.189881,
    "district": "Sant Martu00ed",
    "district_code": "10",
    "suburb": "el Parc i la Llacuna del Poblenou",
    "suburb_code": "66"
  },
  {
    "station_id": "43",
    "status": "IN_SERVICE",
    "num_bikes_available": 6,
    "num_docks_available": 12,
    "name": "C/ CLOT, 1",
    "post_code": "08018",
    "lat": 41.4063864,
    "lng": 2.1874404,
    "district": "Sant Martu00ed",
    "district_code": "10",
    "suburb": "el Clot",
    "suburb_code": "65"
  },
  {
    "station_id": "45",
    "status": "IN_SERVICE",
    "num_bikes_available": 22,
    "num_docks_available": 3,
    "name": "C/ SARDENYA, 66",
    "post_code": "08005",
    "lat": 41.391466,
    "lng": 2.189371,
    "district": "Sant Martu00ed",
    "district_code": "10",
    "suburb": "la Vila Olu00edmpica del Poblenou",
    "suburb_code": "67"
  },
  {
    "station_id": "46",
    "status": "IN_SERVICE",
    "num_bikes_available": 19,
    "num_docks_available": 35,
    "name": "C/ VILLENA, 1",
    "post_code": "08005",
    "lat": 41.3886065969,
    "lng": 2.1921945085,
    "district": "Sant Martu00ed",
    "district_code": "10",
    "suburb": "la Vila Olu00edmpica del Poblenou",
    "suburb_code": "67"
  },
  {
    "station_id": "47",
    "status": "IN_SERVICE",
    "num_bikes_available": 17,
    "num_docks_available": 30,
    "name": "C/ RAMON TRIAS FARGAS, 21",
    "post_code": "08005",
    "lat": 41.3902194,
    "lng": 2.1904003,
    "district": "Sant Martu00ed",
    "district_code": "10",
    "suburb": "la Vila Olu00edmpica del Poblenou",
    "suburb_code": "67"
  },
  {
    "station_id": "48",
    "status": "IN_SERVICE",
    "num_bikes_available": 12,
    "num_docks_available": 6,
    "name": "AV. MERIDIANA, 40",
    "post_code": "08018",
    "lat": 41.3960652,
    "lng": 2.1871959,
    "district": "Sant Martu00ed",
    "district_code": "10",
    "suburb": "el Parc i la Llacuna del Poblenou",
    "suburb_code": "66"
  },
  {
    "station_id": "49",
    "status": "IN_SERVICE",
    "num_bikes_available": 1,
    "num_docks_available": 15,
    "name": "C/ ROSA SENSAT, 20",
    "post_code": "08005",
    "lat": 41.3910756,
    "lng": 2.1965766,
    "district": "Sant Martu00ed",
    "district_code": "10",
    "suburb": "la Vila Olu00edmpica del Poblenou",
    "suburb_code": "67"
  },
  {
    "station_id": "50",
    "status": "FULL",
    "num_bikes_available": 14,
    "num_docks_available": 0,
    "name": "AV. PARAL.LEL, 54",
    "post_code": "08004",
    "lat": 41.3751145,
    "lng": 2.1709386,
    "district": "Ciutat Vella",
    "district_code": "01",
    "suburb": "el Raval",
    "suburb_code": "01"
  },
  {
    "station_id": "51",
    "status": "IN_SERVICE",
    "num_bikes_available": 11,
    "num_docks_available": 6,
    "name": "PL. VICENu00c7 MARTORELL",
    "post_code": "08001",
    "lat": 41.3842634,
    "lng": 2.1692556,
    "district": "Ciutat Vella",
    "district_code": "01",
    "suburb": "el Raval",
    "suburb_code": "01"
  },
  {
    "station_id": "52",
    "status": "IN_SERVICE",
    "num_bikes_available": 16,
    "num_docks_available": 13,
    "name": "PL. SANT MIQUEL, 4",
    "post_code": "08002",
    "lat": 41.381708,
    "lng": 2.177292,
    "district": "Ciutat Vella",
    "district_code": "01",
    "suburb": "el Barri Gu00f2tic",
    "suburb_code": "02"
  },
  {
    "station_id": "53",
    "status": "IN_SERVICE",
    "num_bikes_available": 17,
    "num_docks_available": 2,
    "name": "PL. CARLES PI I SUNYER",
    "post_code": "08002",
    "lat": 41.385086,
    "lng": 2.174016,
    "district": "Ciutat Vella",
    "district_code": "01",
    "suburb": "el Barri Gu00f2tic",
    "suburb_code": "02"
  },
  {
    "station_id": "54",
    "status": "IN_SERVICE",
    "num_bikes_available": 16,
    "num_docks_available": 1,
    "name": "C/ SANT OLEGUER, 2",
    "post_code": "08001",
    "lat": 41.3775319,
    "lng": 2.1707321,
    "district": "Ciutat Vella",
    "district_code": "01",
    "suburb": "el Raval",
    "suburb_code": "01"
  },
  {
    "station_id": "55",
    "status": "IN_SERVICE",
    "num_bikes_available": 5,
    "num_docks_available": 10,
    "name": "LA RAMBLA, 80",
    "post_code": "08002",
    "lat": 41.3811923,
    "lng": 2.1735007,
    "district": "Ciutat Vella",
    "district_code": "01",
    "suburb": "el Barri Gu00f2tic",
    "suburb_code": "02"
  },
  {
    "station_id": "56",
    "status": "IN_SERVICE",
    "num_bikes_available": 25,
    "num_docks_available": 1,
    "name": "PORTAL DE SANTA MADRONA, 2-4",
    "post_code": "08001",
    "lat": 41.3770715,
    "lng": 2.1758261,
    "district": "Ciutat Vella",
    "district_code": "01",
    "suburb": "el Raval",
    "suburb_code": "01"
  },
  {
    "station_id": "57",
    "status": "IN_SERVICE",
    "num_bikes_available": 21,
    "num_docks_available": 4,
    "name": "LA RAMBLA, 2 (MUSEO DE CERA)",
    "post_code": "08002",
    "lat": 41.377187,
    "lng": 2.176757,
    "district": "Ciutat Vella",
    "district_code": "01",
    "suburb": "el Barri Gu00f2tic",
    "suburb_code": "02"
  },
  {
    "station_id": "58",
    "status": "IN_SERVICE",
    "num_bikes_available": 9,
    "num_docks_available": 32,
    "name": "PLAu00c7A DELS u00c0NGELS (MACBA)",
    "post_code": "08001",
    "lat": 41.38268,
    "lng": 2.16712,
    "district": "Ciutat Vella",
    "district_code": "01",
    "suburb": "el Raval",
    "suburb_code": "01"
  },
  {
    "station_id": "60",
    "status": "IN_SERVICE",
    "num_bikes_available": 5,
    "num_docks_available": 21,
    "name": "RBLA. CATALUNYA, 47",
    "post_code": "08007",
    "lat": 41.3902625,
    "lng": 2.164035,
    "district": "Eixample",
    "district_code": "02",
    "suburb": "la Dreta de l'Eixample",
    "suburb_code": "07"
  },
  {
    "station_id": "61",
    "status": "IN_SERVICE",
    "num_bikes_available": 1,
    "num_docks_available": 15,
    "name": "C/ ARAGu00d3, 288",
    "post_code": "08009",
    "lat": 41.39352,
    "lng": 2.166797,
    "district": "Eixample",
    "district_code": "02",
    "suburb": "la Dreta de l'Eixample",
    "suburb_code": "07"
  },
  {
    "station_id": "62",
    "status": "EMPTY",
    "num_bikes_available": 0,
    "num_docks_available": 22,
    "name": "PL. CATALUNYA, 5",
    "post_code": "08002",
    "lat": 41.387235,
    "lng": 2.168819,
    "district": "Eixample",
    "district_code": "02",
    "suburb": "la Dreta de l'Eixample",
    "suburb_code": "07"
  },
  {
    "station_id": "63",
    "status": "IN_SERVICE",
    "num_bikes_available": 8,
    "num_docks_available": 17,
    "name": "PL. CATALUNYA, 7",
    "post_code": "08002",
    "lat": 41.386543,
    "lng": 2.169427,
    "district": "Eixample",
    "district_code": "02",
    "suburb": "la Dreta de l'Eixample",
    "suburb_code": "07"
  },
  {
    "station_id": "64",
    "status": "IN_SERVICE",
    "num_bikes_available": 7,
    "num_docks_available": 13,
    "name": "PL. CATALUNYA, 10-11 (LA RAMBLA)",
    "post_code": "08002",
    "lat": 41.387493,
    "lng": 2.1690686,
    "district": "Eixample",
    "district_code": "02",
    "suburb": "la Dreta de l'Eixample",
    "suburb_code": "07"
  },
  {
    "station_id": "65",
    "status": "IN_SERVICE",
    "num_bikes_available": 1,
    "num_docks_available": 19,
    "name": "PL. CATALUNYA, 10-11 (PG. DE GRu00c0CIA)",
    "post_code": "08002",
    "lat": 41.387696,
    "lng": 2.1696543,
    "district": "Eixample",
    "district_code": "02",
    "suburb": "la Dreta de l'Eixample",
    "suburb_code": "07"
  },
  {
    "station_id": "66",
    "status": "EMPTY",
    "num_bikes_available": 0,
    "num_docks_available": 15,
    "name": "GRAN VIA DE LES CORTS CATALANES, 609",
    "post_code": "08007",
    "lat": 41.3893222,
    "lng": 2.1678388,
    "district": "Eixample",
    "district_code": "02",
    "suburb": "la Dreta de l'Eixample",
    "suburb_code": "07"
  },
  {
    "station_id": "67",
    "status": "IN_SERVICE",
    "num_bikes_available": 4,
    "num_docks_available": 14,
    "name": "C/ ROCAFORT, 214 | C/ ROSSELLu00d3",
    "post_code": "08029",
    "lat": 41.3852864,
    "lng": 2.1454802,
    "district": "Eixample",
    "district_code": "02",
    "suburb": "la Nova Esquerra de l'Eixample",
    "suburb_code": "09"
  },
  {
    "station_id": "68",
    "status": "IN_SERVICE",
    "num_bikes_available": 5,
    "num_docks_available": 16,
    "name": "RAMBLA CATALUNYA, 133 /  Cu00d2RSEGA",
    "post_code": "08008",
    "lat": 41.3953894,
    "lng": 2.1572953,
    "district": "Eixample",
    "district_code": "02",
    "suburb": "la Dreta de l'Eixample",
    "suburb_code": "07"
  },
  {
    "station_id": "69",
    "status": "IN_SERVICE",
    "num_bikes_available": 20,
    "num_docks_available": 19,
    "name": "CARRER DE LA MARINA,25-33",
    "post_code": "08005",
    "lat": 41.388507,
    "lng": 2.195073,
    "district": "Sant Martu00ed",
    "district_code": "10",
    "suburb": "la Vila Olu00edmpica del Poblenou",
    "suburb_code": "67"
  },
  {
    "station_id": "70",
    "status": "IN_SERVICE",
    "num_bikes_available": 16,
    "num_docks_available": 9,
    "name": "C/ COMTE URGELL, 23",
    "post_code": "08011",
    "lat": 41.380393,
    "lng": 2.1606506,
    "district": "Eixample",
    "district_code": "02",
    "suburb": "Sant Antoni",
    "suburb_code": "10"
  },
  {
    "station_id": "71",
    "status": "IN_SERVICE",
    "num_bikes_available": 14,
    "num_docks_available": 6,
    "name": "C/ FLORIDABLANCA, 145",
    "post_code": "08011",
    "lat": 41.3819459,
    "lng": 2.1629146,
    "district": "Eixample",
    "district_code": "02",
    "suburb": "Sant Antoni",
    "suburb_code": "10"
  },
  {
    "station_id": "72",
    "status": "IN_SERVICE",
    "num_bikes_available": 11,
    "num_docks_available": 13,
    "name": "C/ PROVENu00c7A, 215",
    "post_code": "08008",
    "lat": 41.3927771,
    "lng": 2.1586273,
    "district": "Eixample",
    "district_code": "02",
    "suburb": "la Dreta de l'Eixample",
    "suburb_code": "07"
  },
  {
    "station_id": "73",
    "status": "IN_SERVICE",
    "num_bikes_available": 1,
    "num_docks_available": 21,
    "name": "C/ ENRIC GRANADOS, 93",
    "post_code": "08008",
    "lat": 41.392135,
    "lng": 2.1563542,
    "district": "Eixample",
    "district_code": "02",
    "suburb": "l'Antiga Esquerra de l'Eixample",
    "suburb_code": "08"
  },
  {
    "station_id": "74",
    "status": "IN_SERVICE",
    "num_bikes_available": 3,
    "num_docks_available": 12,
    "name": "AV. JOSEP TARRADELLAS, 133",
    "post_code": "08029",
    "lat": 41.3900085,
    "lng": 2.1432105,
    "district": "Les Corts",
    "district_code": "04",
    "suburb": "les Corts",
    "suburb_code": "19"
  },
  {
    "station_id": "75",
    "status": "IN_SERVICE",
    "num_bikes_available": 2,
    "num_docks_available": 18,
    "name": "AV. JOSEP TARRADELLAS, 58",
    "post_code": "08029",
    "lat": 41.385004,
    "lng": 2.1429115,
    "district": "Eixample",
    "district_code": "02",
    "suburb": "la Nova Esquerra de l'Eixample",
    "suburb_code": "09"
  },
  {
    "station_id": "76",
    "status": "IN_SERVICE",
    "num_bikes_available": 1,
    "num_docks_available": 29,
    "name": "C/ Cu00d2RSEGA, 216",
    "post_code": "08036",
    "lat": 41.3917666,
    "lng": 2.1532163,
    "district": "Eixample",
    "district_code": "02",
    "suburb": "l'Antiga Esquerra de l'Eixample",
    "suburb_code": "08"
  },
  {
    "station_id": "77",
    "status": "IN_SERVICE",
    "num_bikes_available": 8,
    "num_docks_available": 12,
    "name": "AV. FRANCESC CAMBu00d3, 10",
    "post_code": "08003",
    "lat": 41.3855644,
    "lng": 2.1773214,
    "district": "Ciutat Vella",
    "district_code": "01",
    "suburb": "Sant Pere, Santa Caterina i la Ribera",
    "suburb_code": "04"
  },
  {
    "station_id": "78",
    "status": "IN_SERVICE",
    "num_bikes_available": 5,
    "num_docks_available": 21,
    "name": "PL. UNIVERSITAT /  ARIBAU",
    "post_code": "08011",
    "lat": 41.3856474,
    "lng": 2.1634306,
    "district": "Eixample",
    "district_code": "02",
    "suburb": "Sant Antoni",
    "suburb_code": "10"
  },
  {
    "station_id": "79",
    "status": "IN_SERVICE",
    "num_bikes_available": 10,
    "num_docks_available": 11,
    "name": "PL.  UNIVERSITAT",
    "post_code": "08007",
    "lat": 41.385503,
    "lng": 2.1634768,
    "district": "Eixample",
    "district_code": "02",
    "suburb": "Sant Antoni",
    "suburb_code": "10"
  },
  {
    "station_id": "80",
    "status": "IN_SERVICE",
    "num_bikes_available": 1,
    "num_docks_available": 13,
    "name": "C/ ENRIC  GRANADOS, 35",
    "post_code": "08007",
    "lat": 41.389668,
    "lng": 2.1599078,
    "district": "Eixample",
    "district_code": "02",
    "suburb": "l'Antiga Esquerra de l'Eixample",
    "suburb_code": "08"
  },
  {
    "station_id": "81",
    "status": "IN_SERVICE",
    "num_bikes_available": 11,
    "num_docks_available": 10,
    "name": "C/ VILAMARu00cd,  61",
    "post_code": "08015",
    "lat": 41.3790718,
    "lng": 2.1490553,
    "district": "Eixample",
    "district_code": "02",
    "suburb": "la Nova Esquerra de l'Eixample",
    "suburb_code": "09"
  },
  {
    "station_id": "82",
    "status": "IN_SERVICE",
    "num_bikes_available": 13,
    "num_docks_available": 22,
    "name": "C/ CALu00c0BRIA, 112",
    "post_code": "08015",
    "lat": 41.38031806,
    "lng": 2.1544371248,
    "district": "Eixample",
    "district_code": "02",
    "suburb": "la Nova Esquerra de l'Eixample",
    "suburb_code": "09"
  },
  {
    "station_id": "83",
    "status": "IN_SERVICE",
    "num_bikes_available": 16,
    "num_docks_available": 3,
    "name": "C/ CALABRIA, 158",
    "post_code": "08015",
    "lat": 41.3821658,
    "lng": 2.1520645,
    "district": "Eixample",
    "district_code": "02",
    "suburb": "la Nova Esquerra de l'Eixample",
    "suburb_code": "09"
  },
  {
    "station_id": "84",
    "status": "IN_SERVICE",
    "num_bikes_available": 2,
    "num_docks_available": 23,
    "name": "C/ DEL COMTE D'URGELL 75 B",
    "post_code": "08011",
    "lat": 41.3830299,
    "lng": 2.1571646,
    "district": "Eixample",
    "district_code": "02",
    "suburb": "la Nova Esquerra de l'Eixample",
    "suburb_code": "09"
  },
  {
    "station_id": "85",
    "status": "IN_SERVICE",
    "num_bikes_available": 21,
    "num_docks_available": 17,
    "name": "AV. PARALu00b7LEL, 146 BIS",
    "post_code": "08015",
    "lat": 41.3751852,
    "lng": 2.1592394,
    "district": "Eixample",
    "district_code": "02",
    "suburb": "Sant Antoni",
    "suburb_code": "10"
  },
  {
    "station_id": "86",
    "status": "IN_SERVICE",
    "num_bikes_available": 9,
    "num_docks_available": 14,
    "name": "C/ VILADOMAT,  2",
    "post_code": "08015",
    "lat": 41.3755747,
    "lng": 2.1629349,
    "district": "Eixample",
    "district_code": "02",
    "suburb": "Sant Antoni",
    "suburb_code": "10"
  },
  {
    "station_id": "87",
    "status": "IN_SERVICE",
    "num_bikes_available": 11,
    "num_docks_available": 14,
    "name": "C/ ROCAFORT, 187",
    "post_code": "08029",
    "lat": 41.3832223889,
    "lng": 2.1479931916,
    "district": "Eixample",
    "district_code": "02",
    "suburb": "la Nova Esquerra de l'Eixample",
    "suburb_code": "09"
  },
  {
    "station_id": "88",
    "status": "IN_SERVICE",
    "num_bikes_available": 1,
    "num_docks_available": 15,
    "name": "C/ LONDRES, 101-103",
    "post_code": "08036",
    "lat": 41.3936144,
    "lng": 2.1507739,
    "district": "Eixample",
    "district_code": "02",
    "suburb": "l'Antiga Esquerra de l'Eixample",
    "suburb_code": "08"
  },
  {
    "station_id": "89",
    "status": "IN_SERVICE",
    "num_bikes_available": 9,
    "num_docks_available": 15,
    "name": "C/ ROSSELLu00d3,  101",
    "post_code": "08036",
    "lat": 41.3871904,
    "lng": 2.149131,
    "district": "Eixample",
    "district_code": "02",
    "suburb": "la Nova Esquerra de l'Eixample",
    "suburb_code": "09"
  },
  {
    "station_id": "90",
    "status": "IN_SERVICE",
    "num_bikes_available": 4,
    "num_docks_available": 12,
    "name": "C/ ROSSELLu00d3, 108-110",
    "post_code": "08036",
    "lat": 41.388296,
    "lng": 2.150878,
    "district": "Eixample",
    "district_code": "02",
    "suburb": "l'Antiga Esquerra de l'Eixample",
    "suburb_code": "08"
  },
  {
    "station_id": "91",
    "status": "IN_SERVICE",
    "num_bikes_available": 30,
    "num_docks_available": 2,
    "name": "C/ COMTE D'URGELL, 43",
    "post_code": "08011",
    "lat": 41.3812504,
    "lng": 2.1594741,
    "district": "Eixample",
    "district_code": "02",
    "suburb": "Sant Antoni",
    "suburb_code": "10"
  },
  {
    "station_id": "92",
    "status": "EMPTY",
    "num_bikes_available": 0,
    "num_docks_available": 16,
    "name": "C / PROVENu00c7A, 241",
    "post_code": "08008",
    "lat": 41.3938861,
    "lng": 2.1601641,
    "district": "Eixample",
    "district_code": "02",
    "suburb": "la Dreta de l'Eixample",
    "suburb_code": "07"
  },
  {
    "station_id": "94",
    "status": "IN_SERVICE",
    "num_bikes_available": 10,
    "num_docks_available": 35,
    "name": "GRAN VIA DE LES CORTS CATALANES,375",
    "post_code": "08015",
    "lat": 41.3757914,
    "lng": 2.1499102,
    "district": "Eixample",
    "district_code": "02",
    "suburb": "la Nova Esquerra de l'Eixample",
    "suburb_code": "09"
  },
  {
    "station_id": "95",
    "status": "IN_SERVICE",
    "num_bikes_available": 3,
    "num_docks_available": 29,
    "name": "C/ TARRAGONA, 103-115",
    "post_code": "08014",
    "lat": 41.3763948,
    "lng": 2.1473272,
    "district": "Sants-Montjuu00efc",
    "district_code": "03",
    "suburb": "Hostafrancs",
    "suburb_code": "15"
  },
  {
    "station_id": "96",
    "status": "IN_SERVICE",
    "num_bikes_available": 5,
    "num_docks_available": 14,
    "name": "GRAN VIA DE LES CORTS CATALANES,  368",
    "post_code": "08010",
    "lat": 41.3741093,
    "lng": 2.1481993,
    "district": "Sants-Montjuu00efc",
    "district_code": "03",
    "suburb": "el Poble-sec",
    "suburb_code": "11"
  },
  {
    "station_id": "97",
    "status": "IN_SERVICE",
    "num_bikes_available": 16,
    "num_docks_available": 4,
    "name": "C/ TARRAGONA, 141",
    "post_code": "08014",
    "lat": 41.3779613,
    "lng": 2.1450491,
    "district": "Sants-Montjuu00efc",
    "district_code": "03",
    "suburb": "Hostafrancs",
    "suburb_code": "15"
  },
  {
    "station_id": "98",
    "status": "IN_SERVICE",
    "num_bikes_available": 11,
    "num_docks_available": 9,
    "name": "C/ VIRIAT, 43",
    "post_code": "08014",
    "lat": 41.3806074,
    "lng": 2.1408633,
    "district": "Sants-Montjuu00efc",
    "district_code": "03",
    "suburb": "Sants",
    "suburb_code": "18"
  },
  {
    "station_id": "99",
    "status": "IN_SERVICE",
    "num_bikes_available": 7,
    "num_docks_available": 13,
    "name": "C/ VIRIAT,  53",
    "post_code": "08014",
    "lat": 41.3808222,
    "lng": 2.141539,
    "district": "Sants-Montjuu00efc",
    "district_code": "03",
    "suburb": "Sants",
    "suburb_code": "18"
  },
  {
    "station_id": "100",
    "status": "IN_SERVICE",
    "num_bikes_available": 7,
    "num_docks_available": 15,
    "name": "C/ TARRAGONA,  159-173",
    "post_code": "08014",
    "lat": 41.379363,
    "lng": 2.143868,
    "district": "Sants-Montjuu00efc",
    "district_code": "03",
    "suburb": "Hostafrancs",
    "suburb_code": "15"
  },
  {
    "station_id": "101",
    "status": "IN_SERVICE",
    "num_bikes_available": 8,
    "num_docks_available": 16,
    "name": "La Salle - AV. DIAGONAL,  602",
    "post_code": "08021",
    "lat": 41.392878,
    "lng": 2.143411,
    "district": "Sarriu00e0-Sant Gervasi",
    "district_code": "05",
    "suburb": "Sant Gervasi - Galvany",
    "suburb_code": "26"
  },
  {
    "station_id": "102",
    "status": "IN_SERVICE",
    "num_bikes_available": 12,
    "num_docks_available": 12,
    "name": "AV. DIAGONAL,  612",
    "post_code": "08021",
    "lat": 41.392567,
    "lng": 2.1422174,
    "district": "Sarriu00e0-Sant Gervasi",
    "district_code": "05",
    "suburb": "Sant Gervasi - Galvany",
    "suburb_code": "26"
  },
  {
    "station_id": "103",
    "status": "IN_SERVICE",
    "num_bikes_available": 4,
    "num_docks_available": 16,
    "name": "C/ ARAGu00d3, 629",
    "post_code": "08026",
    "lat": 41.410098,
    "lng": 2.1884487,
    "district": "Sant Martu00ed",
    "district_code": "10",
    "suburb": "el Clot",
    "suburb_code": "65"
  },
  {
    "station_id": "104",
    "status": "IN_SERVICE",
    "num_bikes_available": 10,
    "num_docks_available": 14,
    "name": "C/ VALu00c8NCIA,  621",
    "post_code": "08026",
    "lat": 41.4108005,
    "lng": 2.1872438,
    "district": "Sant Martu00ed",
    "district_code": "10",
    "suburb": "el Clot",
    "suburb_code": "65"
  },
  {
    "station_id": "105",
    "status": "IN_SERVICE",
    "num_bikes_available": 6,
    "num_docks_available": 15,
    "name": "RDA. DE SANT PERE, 26",
    "post_code": "08010",
    "lat": 41.389492,
    "lng": 2.17425,
    "district": "Eixample",
    "district_code": "02",
    "suburb": "la Dreta de l'Eixample",
    "suburb_code": "07"
  },
  {
    "station_id": "106",
    "status": "EMPTY",
    "num_bikes_available": 0,
    "num_docks_available": 18,
    "name": "PL  JOANIC - C / BRUNIQUER, 59",
    "post_code": "08024",
    "lat": 41.4055198,
    "lng": 2.1622548,
    "district": "Gru00e0cia",
    "district_code": "06",
    "suburb": "la Vila de Gru00e0cia",
    "suburb_code": "31"
  },
  {
    "station_id": "107",
    "status": "EMPTY",
    "num_bikes_available": 0,
    "num_docks_available": 15,
    "name": "TRAV. DE GRu00c0CIA, 92 / VIA AUGUSTA",
    "post_code": "08006",
    "lat": 41.3982304,
    "lng": 2.1531031,
    "district": "Sarriu00e0-Sant Gervasi",
    "district_code": "05",
    "suburb": "Sant Gervasi - Galvany",
    "suburb_code": "26"
  },
  {
    "station_id": "108",
    "status": "IN_SERVICE",
    "num_bikes_available": 4,
    "num_docks_available": 14,
    "name": "C / INDu00daSTRIA, 10",
    "post_code": "08037",
    "lat": 41.4022081,
    "lng": 2.1649035,
    "district": "Gru00e0cia",
    "district_code": "06",
    "suburb": "el Camp d'en Grassot i Gru00e0cia Nova",
    "suburb_code": "32"
  },
  {
    "station_id": "109",
    "status": "IN_SERVICE",
    "num_bikes_available": 5,
    "num_docks_available": 15,
    "name": "C/ LONDRES,  53",
    "post_code": "08036",
    "lat": 41.3912605,
    "lng": 2.1476308,
    "district": "Eixample",
    "district_code": "02",
    "suburb": "l'Antiga Esquerra de l'Eixample",
    "suburb_code": "08"
  },
  {
    "station_id": "110",
    "status": "IN_SERVICE",
    "num_bikes_available": 9,
    "num_docks_available": 12,
    "name": "AV. ROMA,  136",
    "post_code": "08011",
    "lat": 41.3852585,
    "lng": 2.155089,
    "district": "Eixample",
    "district_code": "02",
    "suburb": "l'Antiga Esquerra de l'Eixample",
    "suburb_code": "08"
  },
  {
    "station_id": "111",
    "status": "IN_SERVICE",
    "num_bikes_available": 11,
    "num_docks_available": 6,
    "name": "C/ ARAGu00d3N 147",
    "post_code": "08015",
    "lat": 41.3847528,
    "lng": 2.1546746,
    "district": "Eixample",
    "district_code": "02",
    "suburb": "la Nova Esquerra de l'Eixample",
    "suburb_code": "09"
  },
  {
    "station_id": "112",
    "status": "IN_SERVICE",
    "num_bikes_available": 8,
    "num_docks_available": 10,
    "name": "C/ FLORIDABLANCA,  49",
    "post_code": "08015",
    "lat": 41.3776721,
    "lng": 2.157233,
    "district": "Eixample",
    "district_code": "02",
    "suburb": "Sant Antoni",
    "suburb_code": "10"
  },
  {
    "station_id": "113",
    "status": "IN_SERVICE",
    "num_bikes_available": 25,
    "num_docks_available": 7,
    "name": "RONDA DE SANT PAU , 51",
    "post_code": "08015",
    "lat": 41.3773113,
    "lng": 2.1646742,
    "district": "Eixample",
    "district_code": "02",
    "suburb": "Sant Antoni",
    "suburb_code": "10"
  },
  {
    "station_id": "114",
    "status": "IN_SERVICE",
    "num_bikes_available": 18,
    "num_docks_available": 1,
    "name": "PL. JEAN GENET,  1",
    "post_code": "08001",
    "lat": 41.376735,
    "lng": 2.1740082,
    "district": "Ciutat Vella",
    "district_code": "01",
    "suburb": "el Raval",
    "suburb_code": "01"
  },
  {
    "station_id": "115",
    "status": "IN_SERVICE",
    "num_bikes_available": 1,
    "num_docks_available": 15,
    "name": "AV. MARQUu00c9S DE L'ARGENTERA,  3",
    "post_code": "08003",
    "lat": 41.383597,
    "lng": 2.184171,
    "district": "Ciutat Vella",
    "district_code": "01",
    "suburb": "Sant Pere, Santa Caterina i la Ribera",
    "suburb_code": "04"
  },
  {
    "station_id": "116",
    "status": "IN_SERVICE",
    "num_bikes_available": 10,
    "num_docks_available": 13,
    "name": "C/ DEL DR. AIGUADER, 72 / PG. SALVAT",
    "post_code": "08003",
    "lat": 41.3838369,
    "lng": 2.1914756,
    "district": "Ciutat Vella",
    "district_code": "01",
    "suburb": "la Barceloneta",
    "suburb_code": "03"
  },
  {
    "station_id": "117",
    "status": "IN_SERVICE",
    "num_bikes_available": 2,
    "num_docks_available": 16,
    "name": "C/ ROSA SENSAT, 12",
    "post_code": "08005",
    "lat": 41.3906051,
    "lng": 2.1972309,
    "district": "Sant Martu00ed",
    "district_code": "10",
    "suburb": "la Vila Olu00edmpica del Poblenou",
    "suburb_code": "67"
  },
  {
    "station_id": "118",
    "status": "IN_SERVICE",
    "num_bikes_available": 6,
    "num_docks_available": 17,
    "name": "C/ PUJADES,  3",
    "post_code": "08018",
    "lat": 41.39212,
    "lng": 2.1874966,
    "district": "Sant Martu00ed",
    "district_code": "10",
    "suburb": "el Parc i la Llacuna del Poblenou",
    "suburb_code": "66"
  },
  {
    "station_id": "119",
    "status": "IN_SERVICE",
    "num_bikes_available": 22,
    "num_docks_available": 16,
    "name": "C/ SARDENYA,  178",
    "post_code": "08013",
    "lat": 41.3967169,
    "lng": 2.1825085,
    "district": "Eixample",
    "district_code": "02",
    "suburb": "el Fort Pienc",
    "suburb_code": "05"
  },
  {
    "station_id": "120",
    "status": "IN_SERVICE",
    "num_bikes_available": 1,
    "num_docks_available": 18,
    "name": "C/ LEPANT,  278",
    "post_code": "08013",
    "lat": 41.4047056,
    "lng": 2.1765126,
    "district": "Eixample",
    "district_code": "02",
    "suburb": "la Sagrada Famu00edlia",
    "suburb_code": "06"
  },
  {
    "station_id": "121",
    "status": "IN_SERVICE",
    "num_bikes_available": 9,
    "num_docks_available": 8,
    "name": "C/ CASTILLEJOS, 258",
    "post_code": "08013",
    "lat": 41.4064529,
    "lng": 2.1785364,
    "district": "Eixample",
    "district_code": "02",
    "suburb": "la Sagrada Famu00edlia",
    "suburb_code": "06"
  },
  {
    "station_id": "122",
    "status": "IN_SERVICE",
    "num_bikes_available": 9,
    "num_docks_available": 15,
    "name": "C/ Nu00c0POLS, 344",
    "post_code": "08025",
    "lat": 41.4054458,
    "lng": 2.1663172,
    "district": "Gru00e0cia",
    "district_code": "06",
    "suburb": "el Camp d'en Grassot i Gru00e0cia Nova",
    "suburb_code": "32"
  },
  {
    "station_id": "123",
    "status": "IN_SERVICE",
    "num_bikes_available": 1,
    "num_docks_available": 18,
    "name": "C/ PROVENu00c7A, 317",
    "post_code": "08037",
    "lat": 41.3988184485,
    "lng": 2.1667352249,
    "district": "Eixample",
    "district_code": "02",
    "suburb": "la Dreta de l'Eixample",
    "suburb_code": "07"
  },
  {
    "station_id": "124",
    "status": "EMPTY",
    "num_bikes_available": 0,
    "num_docks_available": 28,
    "name": "C/ NOVA  BOCANA",
    "post_code": "08039",
    "lat": 41.3702483,
    "lng": 2.1878126,
    "district": "Ciutat Vella",
    "district_code": "01",
    "suburb": "la Barceloneta",
    "suburb_code": "03"
  },
  {
    "station_id": "125",
    "status": "IN_SERVICE",
    "num_bikes_available": 4,
    "num_docks_available": 15,
    "name": "PG. MARu00edTIM, 31 B (ANNEXA A LA  12)",
    "post_code": "08003",
    "lat": 41.3834753,
    "lng": 2.194735,
    "district": "Ciutat Vella",
    "district_code": "01",
    "suburb": "la Barceloneta",
    "suburb_code": "03"
  },
  {
    "station_id": "126",
    "status": "IN_SERVICE",
    "num_bikes_available": 5,
    "num_docks_available": 16,
    "name": "PG. DE COLOM /VIA LAIETANA",
    "post_code": "08002",
    "lat": 41.380628,
    "lng": 2.1822815,
    "district": "Ciutat Vella",
    "district_code": "01",
    "suburb": "el Barri Gu00f2tic",
    "suburb_code": "02"
  },
  {
    "station_id": "127",
    "status": "IN_SERVICE",
    "num_bikes_available": 17,
    "num_docks_available": 8,
    "name": "C/ ARAGu00d3, 659 / NAVAS DE TOLOSA",
    "post_code": "08026",
    "lat": 41.4120681,
    "lng": 2.1907524,
    "district": "Sant Martu00ed",
    "district_code": "10",
    "suburb": "el Clot",
    "suburb_code": "65"
  },
  {
    "station_id": "128",
    "status": "IN_SERVICE",
    "num_bikes_available": 18,
    "num_docks_available": 21,
    "name": "C.C. Diagonal Mar-RAMBLA DE GUIPu00daSCOA, 43",
    "post_code": "08020",
    "lat": 41.4158412,
    "lng": 2.1959771,
    "district": "Sant Martu00ed",
    "district_code": "10",
    "suburb": "Sant Martu00ed de Provenu00e7als",
    "suburb_code": "72"
  },
  {
    "station_id": "129",
    "status": "IN_SERVICE",
    "num_bikes_available": 20,
    "num_docks_available": 2,
    "name": "C/ MANSO, 46",
    "post_code": "08015",
    "lat": 41.377046,
    "lng": 2.16113608,
    "district": "Eixample",
    "district_code": "02",
    "suburb": "Sant Antoni",
    "suburb_code": "10"
  },
  {
    "station_id": "130",
    "status": "IN_SERVICE",
    "num_bikes_available": 8,
    "num_docks_available": 13,
    "name": "RAMBLA DE GUIPu00daSCOA, 103 / CANTu00c0BRIA",
    "post_code": "08020",
    "lat": 41.4200135,
    "lng": 2.2016699,
    "district": "Sant Martu00ed",
    "district_code": "10",
    "suburb": "la Verneda i la Pau",
    "suburb_code": "73"
  },
  {
    "station_id": "131",
    "status": "IN_SERVICE",
    "num_bikes_available": 18,
    "num_docks_available": 10,
    "name": "RAMBLA  DE GUIPu00daSCOA, 158/ CA N'OLIVA",
    "post_code": "08020",
    "lat": 41.4227912,
    "lng": 2.2060317,
    "district": "Sant Martu00ed",
    "district_code": "10",
    "suburb": "la Verneda i la Pau",
    "suburb_code": "73"
  },
  {
    "station_id": "132",
    "status": "IN_SERVICE",
    "num_bikes_available": 21,
    "num_docks_available": 3,
    "name": "PL. VALENTu00cd ALMIRALL",
    "post_code": "08018",
    "lat": 41.4084796,
    "lng": 2.192042,
    "district": "Sant Martu00ed",
    "district_code": "10",
    "suburb": "el Clot",
    "suburb_code": "65"
  },
  {
    "station_id": "133",
    "status": "IN_SERVICE",
    "num_bikes_available": 14,
    "num_docks_available": 1,
    "name": "GRAN VIA DE LES CORTS CATALANES,  902",
    "post_code": "08018",
    "lat": 41.4075013,
    "lng": 2.1930174,
    "district": "Sant Martu00ed",
    "district_code": "10",
    "suburb": "Provenu00e7als del Poblenou",
    "suburb_code": "71"
  },
  {
    "station_id": "134",
    "status": "IN_SERVICE",
    "num_bikes_available": 9,
    "num_docks_available": 11,
    "name": "C/ BAC DE RODA, 157",
    "post_code": "08018",
    "lat": 41.4113024,
    "lng": 2.1987258,
    "district": "Sant Martu00ed",
    "district_code": "10",
    "suburb": "Provenu00e7als del Poblenou",
    "suburb_code": "71"
  },
  {
    "station_id": "135",
    "status": "IN_SERVICE",
    "num_bikes_available": 11,
    "num_docks_available": 9,
    "name": "GRAN VIA DE LES CORTS CATALANES,  981",
    "post_code": "08018",
    "lat": 41.4120452,
    "lng": 2.1972673,
    "district": "Sant Martu00ed",
    "district_code": "10",
    "suburb": "Sant Martu00ed de Provenu00e7als",
    "suburb_code": "72"
  },
  {
    "station_id": "136",
    "status": "IN_SERVICE",
    "num_bikes_available": 9,
    "num_docks_available": 21,
    "name": "GRAN VIA DE LES CORTS CATALANES,  1062",
    "post_code": "08020",
    "lat": 41.4139298,
    "lng": 2.2017955,
    "district": "Sant Martu00ed",
    "district_code": "10",
    "suburb": "Provenu00e7als del Poblenou",
    "suburb_code": "71"
  },
  {
    "station_id": "137",
    "status": "IN_SERVICE",
    "num_bikes_available": 7,
    "num_docks_available": 17,
    "name": "GRAN VIA DE LES CORTS CATALANES , 1041",
    "post_code": "08020",
    "lat": 41.4145805,
    "lng": 2.2008139,
    "district": "Sant Martu00ed",
    "district_code": "10",
    "suburb": "Sant Martu00ed de Provenu00e7als",
    "suburb_code": "72"
  },
  {
    "station_id": "138",
    "status": "IN_SERVICE",
    "num_bikes_available": 5,
    "num_docks_available": 14,
    "name": "GRAN VIA DE LES CORTS CATALANES,  1118",
    "post_code": "08020",
    "lat": 41.4167933,
    "lng": 2.2058345,
    "district": "Sant Martu00ed",
    "district_code": "10",
    "suburb": "Provenu00e7als del Poblenou",
    "suburb_code": "71"
  },
  {
    "station_id": "139",
    "status": "IN_SERVICE",
    "num_bikes_available": 32,
    "num_docks_available": 3,
    "name": "GRAN VIA DE LES CORTS CATALANES,  1131",
    "post_code": "08020",
    "lat": 41.4183999,
    "lng": 2.2058133,
    "district": "Sant Martu00ed",
    "district_code": "10",
    "suburb": "la Verneda i la Pau",
    "suburb_code": "73"
  },
  {
    "station_id": "140",
    "status": "IN_SERVICE",
    "num_bikes_available": 20,
    "num_docks_available": 5,
    "name": "C/ VILADOMAT,  122",
    "post_code": "08015",
    "lat": 41.3808772,
    "lng": 2.1559939,
    "district": "Eixample",
    "district_code": "02",
    "suburb": "la Nova Esquerra de l'Eixample",
    "suburb_code": "09"
  },
  {
    "station_id": "141",
    "status": "IN_SERVICE",
    "num_bikes_available": 28,
    "num_docks_available": 1,
    "name": "C/ BILBAO, 174",
    "post_code": "08018",
    "lat": 41.4090202,
    "lng": 2.1954152,
    "district": "Sant Martu00ed",
    "district_code": "10",
    "suburb": "Provenu00e7als del Poblenou",
    "suburb_code": "71"
  },
  {
    "station_id": "142",
    "status": "IN_SERVICE",
    "num_bikes_available": 4,
    "num_docks_available": 27,
    "name": "C/ SANCHO DE u00c1VILA,  104 - C/ BADAJOZ",
    "post_code": "08018",
    "lat": 41.4003793,
    "lng": 2.1924144,
    "district": "Sant Martu00ed",
    "district_code": "10",
    "suburb": "el Parc i la Llacuna del Poblenou",
    "suburb_code": "66"
  },
  {
    "station_id": "143",
    "status": "IN_SERVICE",
    "num_bikes_available": 1,
    "num_docks_available": 22,
    "name": "C/ SANCHO DE u00c1VILA, 170 / LLACUNA",
    "post_code": "08018",
    "lat": 41.4027907,
    "lng": 2.1956161,
    "district": "Sant Martu00ed",
    "district_code": "10",
    "suburb": "el Parc i la Llacuna del Poblenou",
    "suburb_code": "66"
  },
  {
    "station_id": "144",
    "status": "IN_SERVICE",
    "num_bikes_available": 7,
    "num_docks_available": 14,
    "name": "C/ CASTELLA,  28 / DIAGONAL",
    "post_code": "08018",
    "lat": 41.4056269,
    "lng": 2.1977119,
    "district": "Sant Martu00ed",
    "district_code": "10",
    "suburb": "el Poblenou",
    "suburb_code": "68"
  },
  {
    "station_id": "145",
    "status": "IN_SERVICE",
    "num_bikes_available": 14,
    "num_docks_available": 11,
    "name": "C/ PERE IV,  301 / FLUVIu00c0",
    "post_code": "08020",
    "lat": 41.4093405,
    "lng": 2.2024461,
    "district": "Sant Martu00ed",
    "district_code": "10",
    "suburb": "Provenu00e7als del Poblenou",
    "suburb_code": "71"
  },
  {
    "station_id": "146",
    "status": "IN_SERVICE",
    "num_bikes_available": 7,
    "num_docks_available": 11,
    "name": "C/ PERE IV, 488",
    "post_code": "08019",
    "lat": 41.4148983,
    "lng": 2.207186,
    "district": "Sant Martu00ed",
    "district_code": "10",
    "suburb": "Provenu00e7als del Poblenou",
    "suburb_code": "71"
  },
  {
    "station_id": "147",
    "status": "IN_SERVICE",
    "num_bikes_available": 21,
    "num_docks_available": 11,
    "name": "RAMBLA PRIM, 79",
    "post_code": "08019",
    "lat": 41.416043,
    "lng": 2.2124993,
    "district": "Sant Martu00ed",
    "district_code": "10",
    "suburb": "el Besu00f2s i el Maresme",
    "suburb_code": "70"
  },
  {
    "station_id": "148",
    "status": "IN_SERVICE",
    "num_bikes_available": 12,
    "num_docks_available": 15,
    "name": "RONDA SANT PAU, 79",
    "post_code": "08015",
    "lat": 41.3783467,
    "lng": 2.1633139,
    "district": "Eixample",
    "district_code": "02",
    "suburb": "Sant Antoni",
    "suburb_code": "10"
  },
  {
    "station_id": "149",
    "status": "IN_SERVICE",
    "num_bikes_available": 19,
    "num_docks_available": 5,
    "name": "C/ PUJADES, 57B",
    "post_code": "08019",
    "lat": 41.3958685,
    "lng": 2.192952,
    "district": "Sant Martu00ed",
    "district_code": "10",
    "suburb": "el Parc i la Llacuna del Poblenou",
    "suburb_code": "66"
  },
  {
    "station_id": "150",
    "status": "IN_SERVICE",
    "num_bikes_available": 15,
    "num_docks_available": 11,
    "name": "C/ ESPRONCEDA, 124",
    "post_code": "08005",
    "lat": 41.4065912,
    "lng": 2.203028,
    "district": "Sant Martu00ed",
    "district_code": "10",
    "suburb": "el Poblenou",
    "suburb_code": "68"
  },
  {
    "station_id": "151",
    "status": "IN_SERVICE",
    "num_bikes_available": 7,
    "num_docks_available": 16,
    "name": "C/ PALLARS, 182",
    "post_code": "08005",
    "lat": 41.4003471,
    "lng": 2.1969105,
    "district": "Sant Martu00ed",
    "district_code": "10",
    "suburb": "el Poblenou",
    "suburb_code": "68"
  },
  {
    "station_id": "152",
    "status": "IN_SERVICE",
    "num_bikes_available": 17,
    "num_docks_available": 8,
    "name": "C/ PUJADES, 121",
    "post_code": "08005",
    "lat": 41.3993329,
    "lng": 2.1974184,
    "district": "Sant Martu00ed",
    "district_code": "10",
    "suburb": "el Poblenou",
    "suburb_code": "68"
  },
  {
    "station_id": "153",
    "status": "IN_SERVICE",
    "num_bikes_available": 2,
    "num_docks_available": 19,
    "name": "C/ PUJADES, 173/RBLA POBLE NOU",
    "post_code": "08005",
    "lat": 41.4018686,
    "lng": 2.20077,
    "district": "Sant Martu00ed",
    "district_code": "10",
    "suburb": "el Poblenou",
    "suburb_code": "68"
  },
  {
    "station_id": "154",
    "status": "IN_SERVICE",
    "num_bikes_available": 17,
    "num_docks_available": 11,
    "name": "C/ PUJADES, 191",
    "post_code": "08005",
    "lat": 41.4026275,
    "lng": 2.2017694,
    "district": "Sant Martu00ed",
    "district_code": "10",
    "suburb": "el Poblenou",
    "suburb_code": "68"
  },
  {
    "station_id": "155",
    "status": "IN_SERVICE",
    "num_bikes_available": 20,
    "num_docks_available": 6,
    "name": "C/ PUJADES, 311/ FLUVIu00c0",
    "post_code": "08019",
    "lat": 41.4070139,
    "lng": 2.2074469,
    "district": "Sant Martu00ed",
    "district_code": "10",
    "suburb": "Diagonal Mar i el Front Maru00edtim del Poblenou",
    "suburb_code": "69"
  },
  {
    "station_id": "156",
    "status": "IN_SERVICE",
    "num_bikes_available": 8,
    "num_docks_available": 19,
    "name": "C/ SELVA DE MAR, 46",
    "post_code": "08019",
    "lat": 41.4091355,
    "lng": 2.2088179,
    "district": "Sant Martu00ed",
    "district_code": "10",
    "suburb": "Diagonal Mar i el Front Maru00edtim del Poblenou",
    "suburb_code": "69"
  },
  {
    "station_id": "157",
    "status": "IN_SERVICE",
    "num_bikes_available": 17,
    "num_docks_available": 16,
    "name": "C/ LLULL, 465",
    "post_code": "08019",
    "lat": 41.4132316,
    "lng": 2.2177652,
    "district": "Sant Martu00ed",
    "district_code": "10",
    "suburb": "el Besu00f2s i el Maresme",
    "suburb_code": "70"
  },
  {
    "station_id": "158",
    "status": "IN_SERVICE",
    "num_bikes_available": 2,
    "num_docks_available": 24,
    "name": "RAMBLA DE PRIM, 19",
    "post_code": "08019",
    "lat": 41.4116634,
    "lng": 2.2183313,
    "district": "Sant Martu00ed",
    "district_code": "10",
    "suburb": "el Besu00f2s i el Maresme",
    "suburb_code": "70"
  },
  {
    "station_id": "159",
    "status": "IN_SERVICE",
    "num_bikes_available": 6,
    "num_docks_available": 24,
    "name": "AV. DIAGONAL, 26",
    "post_code": "08019",
    "lat": 41.4110822,
    "lng": 2.2163136,
    "district": "Sant Martu00ed",
    "district_code": "10",
    "suburb": "el Besu00f2s i el Maresme",
    "suburb_code": "70"
  },
  {
    "station_id": "160",
    "status": "IN_SERVICE",
    "num_bikes_available": 1,
    "num_docks_available": 31,
    "name": "AV. D'EDUARD MARISTANY, 1 /FORUM",
    "post_code": "08019",
    "lat": 41.4109763,
    "lng": 2.2193724,
    "district": "Sant Martu00ed",
    "district_code": "10",
    "suburb": "el Besu00f2s i el Maresme",
    "suburb_code": "70"
  },
  {
    "station_id": "161",
    "status": "IN_SERVICE",
    "num_bikes_available": 20,
    "num_docks_available": 6,
    "name": "C/ RAMON TURRu00d3, 91",
    "post_code": "08005",
    "lat": 41.3953011,
    "lng": 2.1965965,
    "district": "Sant Martu00ed",
    "district_code": "10",
    "suburb": "la Vila Olu00edmpica del Poblenou",
    "suburb_code": "67"
  },
  {
    "station_id": "162",
    "status": "IN_SERVICE",
    "num_bikes_available": 9,
    "num_docks_available": 14,
    "name": "C/ RAMON TURRu00d3, 292",
    "post_code": "08005",
    "lat": 41.4038559,
    "lng": 2.2084257,
    "district": "Sant Martu00ed",
    "district_code": "10",
    "suburb": "el Poblenou",
    "suburb_code": "68"
  },
  {
    "station_id": "163",
    "status": "IN_SERVICE",
    "num_bikes_available": 5,
    "num_docks_available": 22,
    "name": "AV. ICu00c0RIA, 202",
    "post_code": "08005",
    "lat": 41.3942108,
    "lng": 2.2008756,
    "district": "Sant Martu00ed",
    "district_code": "10",
    "suburb": "la Vila Olu00edmpica del Poblenou",
    "suburb_code": "67"
  },
  {
    "station_id": "164",
    "status": "IN_SERVICE",
    "num_bikes_available": 20,
    "num_docks_available": 7,
    "name": "C/ INDEPENDu00c8NCIA, 379",
    "post_code": "08026",
    "lat": 41.4118378,
    "lng": 2.1778852,
    "district": "Sant Martu00ed",
    "district_code": "10",
    "suburb": "el Camp de l'Arpa del Clot",
    "suburb_code": "64"
  },
  {
    "station_id": "165",
    "status": "IN_SERVICE",
    "num_bikes_available": 3,
    "num_docks_available": 22,
    "name": "C/ DEL DOCTOR TRUETA, 222",
    "post_code": "08005",
    "lat": 41.3992169,
    "lng": 2.2041415,
    "district": "Sant Martu00ed",
    "district_code": "10",
    "suburb": "el Poblenou",
    "suburb_code": "68"
  },
  {
    "station_id": "166",
    "status": "IN_SERVICE",
    "num_bikes_available": 17,
    "num_docks_available": 8,
    "name": "C/ BILBAO, 2",
    "post_code": "08005",
    "lat": 41.4008312,
    "lng": 2.206645,
    "district": "Sant Martu00ed",
    "district_code": "10",
    "suburb": "el Poblenou",
    "suburb_code": "68"
  },
  {
    "station_id": "167",
    "status": "IN_SERVICE",
    "num_bikes_available": 9,
    "num_docks_available": 11,
    "name": "C/ BAC DE RODA, 11",
    "post_code": "08005",
    "lat": 41.4023354,
    "lng": 2.2105777,
    "district": "Sant Martu00ed",
    "district_code": "10",
    "suburb": "Diagonal Mar i el Front Maru00edtim del Poblenou",
    "suburb_code": "69"
  },
  {
    "station_id": "168",
    "status": "IN_SERVICE",
    "num_bikes_available": 10,
    "num_docks_available": 16,
    "name": "SELVA DE MAR / PG. DEL TAULAT",
    "post_code": "08019",
    "lat": 41.4053697,
    "lng": 2.2135818,
    "district": "Sant Martu00ed",
    "district_code": "10",
    "suburb": "Diagonal Mar i el Front Maru00edtim del Poblenou",
    "suburb_code": "69"
  },
  {
    "station_id": "170",
    "status": "IN_SERVICE",
    "num_bikes_available": 12,
    "num_docks_available": 41,
    "name": "AV. LITORAL, 40 (D)",
    "post_code": "08005",
    "lat": 41.3896642,
    "lng": 2.1999572,
    "district": "Sant Martu00ed",
    "district_code": "10",
    "suburb": "la Vila Olu00edmpica del Poblenou",
    "suburb_code": "67"
  },
  {
    "station_id": "171",
    "status": "EMPTY",
    "num_bikes_available": 0,
    "num_docks_available": 48,
    "name": "AV. LITORAL, 172",
    "post_code": "08005",
    "lat": 41.3919877,
    "lng": 2.2037136,
    "district": "Sant Martu00ed",
    "district_code": "10",
    "suburb": "la Vila Olu00edmpica del Poblenou",
    "suburb_code": "67"
  },
  {
    "station_id": "173",
    "status": "EMPTY",
    "num_bikes_available": 0,
    "num_docks_available": 25,
    "name": "AV.LITORAL, 84",
    "post_code": "08005",
    "lat": 41.3979002,
    "lng": 2.2088454,
    "district": "Sant Martu00ed",
    "district_code": "10",
    "suburb": "el Poblenou",
    "suburb_code": "68"
  },
  {
    "station_id": "174",
    "status": "IN_SERVICE",
    "num_bikes_available": 2,
    "num_docks_available": 22,
    "name": "PG. DE GARCIA Fu00c0RIA, 21/ESPRONCEDA",
    "post_code": "08005",
    "lat": 41.400654,
    "lng": 2.210191,
    "district": "Sant Martu00ed",
    "district_code": "10",
    "suburb": "Diagonal Mar i el Front Maru00edtim del Poblenou",
    "suburb_code": "69"
  },
  {
    "station_id": "175",
    "status": "IN_SERVICE",
    "num_bikes_available": 13,
    "num_docks_available": 13,
    "name": "C/ LLULL, 309",
    "post_code": "08019",
    "lat": 41.4065291,
    "lng": 2.2091221,
    "district": "Sant Martu00ed",
    "district_code": "10",
    "suburb": "Diagonal Mar i el Front Maru00edtim del Poblenou",
    "suburb_code": "69"
  },
  {
    "station_id": "176",
    "status": "IN_SERVICE",
    "num_bikes_available": 18,
    "num_docks_available": 12,
    "name": "PG. DE GARCIA Fu00c0RIA, 37/JOSEP FERRATER",
    "post_code": "08019",
    "lat": 41.403216,
    "lng": 2.2136,
    "district": "Sant Martu00ed",
    "district_code": "10",
    "suburb": "Diagonal Mar i el Front Maru00edtim del Poblenou",
    "suburb_code": "69"
  },
  {
    "station_id": "177",
    "status": "IN_SERVICE",
    "num_bikes_available": 4,
    "num_docks_available": 29,
    "name": "C/ ROSSELLu00d3, 557",
    "post_code": "08026",
    "lat": 41.4110754,
    "lng": 2.1809764,
    "district": "Sant Martu00ed",
    "district_code": "10",
    "suburb": "el Camp de l'Arpa del Clot",
    "suburb_code": "64"
  },
  {
    "station_id": "178",
    "status": "IN_SERVICE",
    "num_bikes_available": 14,
    "num_docks_available": 12,
    "name": "PG. DE GARCIA Fu00c0RIA, 85",
    "post_code": "08019",
    "lat": 41.4053649,
    "lng": 2.2162094,
    "district": "Sant Martu00ed",
    "district_code": "10",
    "suburb": "Diagonal Mar i el Front Maru00edtim del Poblenou",
    "suburb_code": "69"
  },
  {
    "station_id": "179",
    "status": "IN_SERVICE",
    "num_bikes_available": 15,
    "num_docks_available": 1,
    "name": "PG. ZONA FRANCA, 244",
    "post_code": "08038",
    "lat": 41.36352,
    "lng": 2.1369015,
    "district": "Sants-Montjuu00efc",
    "district_code": "03",
    "suburb": "la Marina de Port",
    "suburb_code": "13"
  },
  {
    "station_id": "180",
    "status": "IN_SERVICE",
    "num_bikes_available": 29,
    "num_docks_available": 18,
    "name": "GRAN VIA DE LES CORTS CATALANES, 179 (D)",
    "post_code": "08014",
    "lat": 41.3675574,
    "lng": 2.1388216,
    "district": "Sants-Montjuu00efc",
    "district_code": "03",
    "suburb": "la Bordeta",
    "suburb_code": "16"
  },
  {
    "station_id": "182",
    "status": "IN_SERVICE",
    "num_bikes_available": 17,
    "num_docks_available": 14,
    "name": "C/ SANT PERE Du00b4ABANTO, 2",
    "post_code": "08014",
    "lat": 41.371366,
    "lng": 2.143565,
    "district": "Sants-Montjuu00efc",
    "district_code": "03",
    "suburb": "Hostafrancs",
    "suburb_code": "15"
  },
  {
    "station_id": "183",
    "status": "IN_SERVICE",
    "num_bikes_available": 17,
    "num_docks_available": 11,
    "name": "C/ GAVu00c0, 1",
    "post_code": "08014",
    "lat": 41.3723682,
    "lng": 2.1419494,
    "district": "Sants-Montjuu00efc",
    "district_code": "03",
    "suburb": "la Bordeta",
    "suburb_code": "16"
  },
  {
    "station_id": "184",
    "status": "IN_SERVICE",
    "num_bikes_available": 16,
    "num_docks_available": 11,
    "name": "C/ QUETZAL, 22-24",
    "post_code": "08014",
    "lat": 41.3675438,
    "lng": 2.1342316,
    "district": "Sants-Montjuu00efc",
    "district_code": "03",
    "suburb": "la Bordeta",
    "suburb_code": "16"
  },
  {
    "station_id": "185",
    "status": "IN_SERVICE",
    "num_bikes_available": 10,
    "num_docks_available": 6,
    "name": "C/GAVu00c0, 81",
    "post_code": "08014",
    "lat": 41.3703717,
    "lng": 2.1389439,
    "district": "Sants-Montjuu00efc",
    "district_code": "03",
    "suburb": "la Bordeta",
    "suburb_code": "16"
  },
  {
    "station_id": "186",
    "status": "IN_SERVICE",
    "num_bikes_available": 8,
    "num_docks_available": 14,
    "name": "C/CONSELL DE CENT, 6",
    "post_code": "08014",
    "lat": 41.3755503,
    "lng": 2.1439036,
    "district": "Sants-Montjuu00efc",
    "district_code": "03",
    "suburb": "Hostafrancs",
    "suburb_code": "15"
  },
  {
    "station_id": "187",
    "status": "IN_SERVICE",
    "num_bikes_available": 17,
    "num_docks_available": 1,
    "name": "C/ DE SANT PAU, 89 - 97",
    "post_code": "08001",
    "lat": 41.3768806,
    "lng": 2.1698206,
    "district": "Ciutat Vella",
    "district_code": "01",
    "suburb": "el Raval",
    "suburb_code": "01"
  },
  {
    "station_id": "188",
    "status": "IN_SERVICE",
    "num_bikes_available": 17,
    "num_docks_available": 7,
    "name": "PG. SANT ANTONI /PL. SANTS",
    "post_code": "08014",
    "lat": 41.3756948,
    "lng": 2.1358571,
    "district": "Sants-Montjuu00efc",
    "district_code": "03",
    "suburb": "Sants",
    "suburb_code": "18"
  },
  {
    "station_id": "189",
    "status": "IN_SERVICE",
    "num_bikes_available": 5,
    "num_docks_available": 20,
    "name": "C/ BRUC, 130",
    "post_code": "08037",
    "lat": 41.3969839,
    "lng": 2.1661852,
    "district": "Eixample",
    "district_code": "02",
    "suburb": "la Dreta de l'Eixample",
    "suburb_code": "07"
  },
  {
    "station_id": "190",
    "status": "EMPTY",
    "num_bikes_available": 0,
    "num_docks_available": 25,
    "name": "AV. LITORAL, 72",
    "post_code": "08005",
    "lat": 41.3961412,
    "lng": 2.2078439,
    "district": "Sant Martu00ed",
    "district_code": "10",
    "suburb": "el Poblenou",
    "suburb_code": "68"
  },
  {
    "station_id": "191",
    "status": "IN_SERVICE",
    "num_bikes_available": 13,
    "num_docks_available": 21,
    "name": "C/ ENTENu00c7A, 137",
    "post_code": "08015",
    "lat": 41.381951,
    "lng": 2.147474,
    "district": "Eixample",
    "district_code": "02",
    "suburb": "la Nova Esquerra de l'Eixample",
    "suburb_code": "09"
  },
  {
    "station_id": "192",
    "status": "IN_SERVICE",
    "num_bikes_available": 15,
    "num_docks_available": 6,
    "name": "C/ JOAN Gu00dcELL, 50",
    "post_code": "08028",
    "lat": 41.3786364,
    "lng": 2.1335494,
    "district": "Sants-Montjuu00efc",
    "district_code": "03",
    "suburb": "Sants",
    "suburb_code": "18"
  },
  {
    "station_id": "193",
    "status": "IN_SERVICE",
    "num_bikes_available": 5,
    "num_docks_available": 18,
    "name": "C/ Fu00cdGOLS, 1",
    "post_code": "08028",
    "lat": 41.3812979,
    "lng": 2.1289917,
    "district": "Les Corts",
    "district_code": "04",
    "suburb": "les Corts",
    "suburb_code": "19"
  },
  {
    "station_id": "194",
    "status": "IN_SERVICE",
    "num_bikes_available": 8,
    "num_docks_available": 15,
    "name": "C/ JOAN Gu00dcELL, 98",
    "post_code": "08028",
    "lat": 41.3812001,
    "lng": 2.1323612,
    "district": "Les Corts",
    "district_code": "04",
    "suburb": "les Corts",
    "suburb_code": "19"
  },
  {
    "station_id": "195",
    "status": "IN_SERVICE",
    "num_bikes_available": 3,
    "num_docks_available": 22,
    "name": "C/ VALLESPIR, 130",
    "post_code": "08014",
    "lat": 41.3821371,
    "lng": 2.1354149,
    "district": "Les Corts",
    "district_code": "04",
    "suburb": "les Corts",
    "suburb_code": "19"
  },
  {
    "station_id": "196",
    "status": "IN_SERVICE",
    "num_bikes_available": 1,
    "num_docks_available": 25,
    "name": "C/ BERLu00cdN, 38",
    "post_code": "08029",
    "lat": 41.3832609,
    "lng": 2.1392662,
    "district": "Sants-Montjuu00efc",
    "district_code": "03",
    "suburb": "Sants",
    "suburb_code": "18"
  },
  {
    "station_id": "197",
    "status": "IN_SERVICE",
    "num_bikes_available": 3,
    "num_docks_available": 22,
    "name": "C/ GELABERT, 1",
    "post_code": "08029",
    "lat": 41.3871579,
    "lng": 2.1410945,
    "district": "Les Corts",
    "district_code": "04",
    "suburb": "les Corts",
    "suburb_code": "19"
  },
  {
    "station_id": "198",
    "status": "IN_SERVICE",
    "num_bikes_available": 1,
    "num_docks_available": 25,
    "name": "C/ VALLESPIR, 194",
    "post_code": "08014",
    "lat": 41.3847113,
    "lng": 2.1334379,
    "district": "Les Corts",
    "district_code": "04",
    "suburb": "les Corts",
    "suburb_code": "19"
  },
  {
    "station_id": "199",
    "status": "IN_SERVICE",
    "num_bikes_available": 9,
    "num_docks_available": 15,
    "name": "C/ MEJu00cdA LEQUERICA, 2",
    "post_code": "08028",
    "lat": 41.3819739,
    "lng": 2.1268625,
    "district": "Les Corts",
    "district_code": "04",
    "suburb": "la Maternitat i Sant Ramon",
    "suburb_code": "20"
  },
  {
    "station_id": "200",
    "status": "IN_SERVICE",
    "num_bikes_available": 2,
    "num_docks_available": 20,
    "name": "C/ JOAN Gu00dcELL, 174",
    "post_code": "08028",
    "lat": 41.3839045,
    "lng": 2.1312876,
    "district": "Les Corts",
    "district_code": "04",
    "suburb": "les Corts",
    "suburb_code": "19"
  },
  {
    "station_id": "201",
    "status": "IN_SERVICE",
    "num_bikes_available": 1,
    "num_docks_available": 22,
    "name": "C/ NUMu00c0NCIA, 136",
    "post_code": "08029",
    "lat": 41.3878061,
    "lng": 2.1344218,
    "district": "Les Corts",
    "district_code": "04",
    "suburb": "les Corts",
    "suburb_code": "19"
  },
  {
    "station_id": "202",
    "status": "IN_SERVICE",
    "num_bikes_available": 6,
    "num_docks_available": 19,
    "name": "C/ DE LES CORTS, 20",
    "post_code": "08028",
    "lat": 41.3854466,
    "lng": 2.1288753,
    "district": "Les Corts",
    "district_code": "04",
    "suburb": "les Corts",
    "suburb_code": "19"
  },
  {
    "station_id": "203",
    "status": "EMPTY",
    "num_bikes_available": 0,
    "num_docks_available": 29,
    "name": "ESIC-AV. DIAGONAL, 668",
    "post_code": "08034",
    "lat": 41.3887069,
    "lng": 2.1285766,
    "district": "Les Corts",
    "district_code": "04",
    "suburb": "les Corts",
    "suburb_code": "19"
  },
  {
    "station_id": "204",
    "status": "IN_SERVICE",
    "num_bikes_available": 15,
    "num_docks_available": 18,
    "name": "La Salle - AV. DIAGONAL, 672",
    "post_code": "08034",
    "lat": 41.3880355,
    "lng": 2.1256248,
    "district": "Les Corts",
    "district_code": "04",
    "suburb": "Pedralbes",
    "suburb_code": "21"
  },
  {
    "station_id": "205",
    "status": "IN_SERVICE",
    "num_bikes_available": 12,
    "num_docks_available": 19,
    "name": "C/ EUROPA, 25",
    "post_code": "08028",
    "lat": 41.387561,
    "lng": 2.1306737,
    "district": "Les Corts",
    "district_code": "04",
    "suburb": "les Corts",
    "suburb_code": "19"
  },
  {
    "station_id": "206",
    "status": "IN_SERVICE",
    "num_bikes_available": 1,
    "num_docks_available": 28,
    "name": "La Salle - AV. DIAGONAL, 650",
    "post_code": "08017",
    "lat": 41.3897943,
    "lng": 2.1328634,
    "district": "Les Corts",
    "district_code": "04",
    "suburb": "les Corts",
    "suburb_code": "19"
  },
  {
    "station_id": "207",
    "status": "EMPTY",
    "num_bikes_available": 0,
    "num_docks_available": 23,
    "name": "AV. DIAGONAL, 634",
    "post_code": "08017",
    "lat": 41.3908477,
    "lng": 2.136579,
    "district": "Les Corts",
    "district_code": "04",
    "suburb": "les Corts",
    "suburb_code": "19"
  },
  {
    "station_id": "208",
    "status": "IN_SERVICE",
    "num_bikes_available": 4,
    "num_docks_available": 28,
    "name": "AV. DIAGONAL, 630",
    "post_code": "08017",
    "lat": 41.3915195,
    "lng": 2.1390667,
    "district": "Sarriu00e0-Sant Gervasi",
    "district_code": "05",
    "suburb": "Sant Gervasi - Galvany",
    "suburb_code": "26"
  },
  {
    "station_id": "209",
    "status": "IN_SERVICE",
    "num_bikes_available": 9,
    "num_docks_available": 12,
    "name": "C/ DIPUTACIu00d3, 200",
    "post_code": "08011",
    "lat": 41.3857425,
    "lng": 2.1610515,
    "district": "Eixample",
    "district_code": "02",
    "suburb": "l'Antiga Esquerra de l'Eixample",
    "suburb_code": "08"
  },
  {
    "station_id": "210",
    "status": "IN_SERVICE",
    "num_bikes_available": 3,
    "num_docks_available": 27,
    "name": "C/ VILARDELL, 18",
    "post_code": "08014",
    "lat": 41.3745238,
    "lng": 2.1422556,
    "district": "Sants-Montjuu00efc",
    "district_code": "03",
    "suburb": "Hostafrancs",
    "suburb_code": "15"
  },
  {
    "station_id": "211",
    "status": "IN_SERVICE",
    "num_bikes_available": 23,
    "num_docks_available": 2,
    "name": "C/ SANCHO DE u00c1VILA, 60-64",
    "post_code": "08018",
    "lat": 41.3987543,
    "lng": 2.1902116,
    "district": "Sant Martu00ed",
    "district_code": "10",
    "suburb": "el Parc i la Llacuna del Poblenou",
    "suburb_code": "66"
  },
  {
    "station_id": "212",
    "status": "IN_SERVICE",
    "num_bikes_available": 20,
    "num_docks_available": 3,
    "name": "AV. SARRIu00c0, 163",
    "post_code": "08017",
    "lat": 41.3922355,
    "lng": 2.1309272,
    "district": "Les Corts",
    "district_code": "04",
    "suburb": "les Corts",
    "suburb_code": "19"
  },
  {
    "station_id": "213",
    "status": "IN_SERVICE",
    "num_bikes_available": 8,
    "num_docks_available": 25,
    "name": "C/ SANTA FE DE NOU Mu00c8XIC, 2",
    "post_code": "08017",
    "lat": 41.3935816,
    "lng": 2.1345892,
    "district": "Sarriu00e0-Sant Gervasi",
    "district_code": "05",
    "suburb": "les Tres Torres",
    "suburb_code": "24"
  },
  {
    "station_id": "214",
    "status": "IN_SERVICE",
    "num_bikes_available": 4,
    "num_docks_available": 20,
    "name": "C/ JOSu00c9 DE  AGULLu00d3, 9",
    "post_code": "08017",
    "lat": 41.3952027,
    "lng": 2.1334873,
    "district": "Sarriu00e0-Sant Gervasi",
    "district_code": "05",
    "suburb": "les Tres Torres",
    "suburb_code": "24"
  },
  {
    "station_id": "215",
    "status": "IN_SERVICE",
    "num_bikes_available": 2,
    "num_docks_available": 19,
    "name": "C/ GANDUXER, 29",
    "post_code": "08021",
    "lat": 41.3939378,
    "lng": 2.1380304,
    "district": "Sarriu00e0-Sant Gervasi",
    "district_code": "05",
    "suburb": "Sant Gervasi - Galvany",
    "suburb_code": "26"
  },
  {
    "station_id": "216",
    "status": "IN_SERVICE",
    "num_bikes_available": 5,
    "num_docks_available": 22,
    "name": "C/ MADRAZO, 131",
    "post_code": "08021",
    "lat": 41.3967824,
    "lng": 2.1445567,
    "district": "Sarriu00e0-Sant Gervasi",
    "district_code": "05",
    "suburb": "Sant Gervasi - Galvany",
    "suburb_code": "26"
  },
  {
    "station_id": "217",
    "status": "IN_SERVICE",
    "num_bikes_available": 9,
    "num_docks_available": 17,
    "name": "C/ RECTOR UBACH, 24",
    "post_code": "08021",
    "lat": 41.3985735,
    "lng": 2.1440826,
    "district": "Sarriu00e0-Sant Gervasi",
    "district_code": "05",
    "suburb": "Sant Gervasi - Galvany",
    "suburb_code": "26"
  },
  {
    "station_id": "218",
    "status": "IN_SERVICE",
    "num_bikes_available": 6,
    "num_docks_available": 31,
    "name": "C/ CONSELL DE CENT, 566",
    "post_code": "08013",
    "lat": 41.4040364,
    "lng": 2.183145,
    "district": "Eixample",
    "district_code": "02",
    "suburb": "la Sagrada Famu00edlia",
    "suburb_code": "06"
  },
  {
    "station_id": "219",
    "status": "IN_SERVICE",
    "num_bikes_available": 3,
    "num_docks_available": 22,
    "name": "C/ LAFORJA, 74-76",
    "post_code": "08021",
    "lat": 41.3976165,
    "lng": 2.1471724,
    "district": "Sarriu00e0-Sant Gervasi",
    "district_code": "05",
    "suburb": "Sant Gervasi - Galvany",
    "suburb_code": "26"
  },
  {
    "station_id": "220",
    "status": "IN_SERVICE",
    "num_bikes_available": 1,
    "num_docks_available": 22,
    "name": "C/ TUSET, 19",
    "post_code": "08006",
    "lat": 41.3960982,
    "lng": 2.1513154,
    "district": "Sarriu00e0-Sant Gervasi",
    "district_code": "05",
    "suburb": "Sant Gervasi - Galvany",
    "suburb_code": "26"
  },
  {
    "station_id": "221",
    "status": "IN_SERVICE",
    "num_bikes_available": 3,
    "num_docks_available": 16,
    "name": "GRAN DE GRu00c0CIA, 155 (METRO FONTANA)",
    "post_code": "08012",
    "lat": 41.4025392,
    "lng": 2.1524704,
    "district": "Gru00e0cia",
    "district_code": "06",
    "suburb": "la Vila de Gru00e0cia",
    "suburb_code": "31"
  },
  {
    "station_id": "222",
    "status": "IN_SERVICE",
    "num_bikes_available": 2,
    "num_docks_available": 25,
    "name": "C/ DEL CANu00d3, 1",
    "post_code": "08012",
    "lat": 41.4013296,
    "lng": 2.1574439,
    "district": "Gru00e0cia",
    "district_code": "06",
    "suburb": "la Vila de Gru00e0cia",
    "suburb_code": "31"
  },
  {
    "station_id": "223",
    "status": "IN_SERVICE",
    "num_bikes_available": 6,
    "num_docks_available": 26,
    "name": "C/ DE BONAVISTA, 14",
    "post_code": "08012",
    "lat": 41.3983444,
    "lng": 2.1598243,
    "district": "Gru00e0cia",
    "district_code": "06",
    "suburb": "la Vila de Gru00e0cia",
    "suburb_code": "31"
  },
  {
    "station_id": "224",
    "status": "EMPTY",
    "num_bikes_available": 0,
    "num_docks_available": 23,
    "name": "C / GIRONA, 176",
    "post_code": "08037",
    "lat": 41.3999967,
    "lng": 2.1644531,
    "district": "Eixample",
    "district_code": "02",
    "suburb": "la Dreta de l'Eixample",
    "suburb_code": "07"
  },
  {
    "station_id": "225",
    "status": "IN_SERVICE",
    "num_bikes_available": 8,
    "num_docks_available": 14,
    "name": "C/ VILADOMAT, 200",
    "post_code": "08029",
    "lat": 41.3848102115,
    "lng": 2.1508071246,
    "district": "Eixample",
    "district_code": "02",
    "suburb": "la Nova Esquerra de l'Eixample",
    "suburb_code": "09"
  },
  {
    "station_id": "226",
    "status": "IN_SERVICE",
    "num_bikes_available": 4,
    "num_docks_available": 19,
    "name": "C/ MONTMANY, 1",
    "post_code": "08012",
    "lat": 41.4035608,
    "lng": 2.1609345,
    "district": "Gru00e0cia",
    "district_code": "06",
    "suburb": "la Vila de Gru00e0cia",
    "suburb_code": "31"
  },
  {
    "station_id": "227",
    "status": "IN_SERVICE",
    "num_bikes_available": 3,
    "num_docks_available": 13,
    "name": "C/ DEL TORRENT DE LES FLORS, 102",
    "post_code": "08024",
    "lat": 41.4078456,
    "lng": 2.1586704,
    "district": "Gru00e0cia",
    "district_code": "06",
    "suburb": "la Vila de Gru00e0cia",
    "suburb_code": "31"
  },
  {
    "station_id": "228",
    "status": "IN_SERVICE",
    "num_bikes_available": 2,
    "num_docks_available": 18,
    "name": "PL. DEL NORD, 5",
    "post_code": "08024",
    "lat": 41.4068417,
    "lng": 2.1558354,
    "district": "Gru00e0cia",
    "district_code": "06",
    "suburb": "la Vila de Gru00e0cia",
    "suburb_code": "31"
  },
  {
    "station_id": "229",
    "status": "EMPTY",
    "num_bikes_available": 0,
    "num_docks_available": 24,
    "name": "C/ DE LA SANTACREU, 2 (PL.DE LA VIRREIN",
    "post_code": "08024",
    "lat": 41.4050968,
    "lng": 2.1569161,
    "district": "Gru00e0cia",
    "district_code": "06",
    "suburb": "la Vila de Gru00e0cia",
    "suburb_code": "31"
  },
  {
    "station_id": "230",
    "status": "IN_SERVICE",
    "num_bikes_available": 10,
    "num_docks_available": 15,
    "name": "C/ DE NIL FABRA, 16-20",
    "post_code": "08012",
    "lat": 41.4059356,
    "lng": 2.1517977,
    "district": "Gru00e0cia",
    "district_code": "06",
    "suburb": "la Vila de Gru00e0cia",
    "suburb_code": "31"
  },
  {
    "station_id": "231",
    "status": "IN_SERVICE",
    "num_bikes_available": 20,
    "num_docks_available": 2,
    "name": "C/ PAU ALSINA, 54",
    "post_code": "08025",
    "lat": 41.4092005,
    "lng": 2.16400285,
    "district": "Gru00e0cia",
    "district_code": "06",
    "suburb": "el Camp d'en Grassot i Gru00e0cia Nova",
    "suburb_code": "32"
  },
  {
    "station_id": "232",
    "status": "IN_SERVICE",
    "num_bikes_available": 18,
    "num_docks_available": 6,
    "name": "C/ MATA, 2",
    "post_code": "08004",
    "lat": 41.3732903,
    "lng": 2.1710273,
    "district": "Sants-Montjuu00efc",
    "district_code": "03",
    "suburb": "el Poble-sec",
    "suburb_code": "11"
  },
  {
    "station_id": "233",
    "status": "IN_SERVICE",
    "num_bikes_available": 17,
    "num_docks_available": 6,
    "name": "C/ NOU DE LA RAMBLA, 164",
    "post_code": "08004",
    "lat": 41.3719688,
    "lng": 2.1667829,
    "district": "Sants-Montjuu00efc",
    "district_code": "03",
    "suburb": "el Poble-sec",
    "suburb_code": "11"
  },
  {
    "station_id": "234",
    "status": "IN_SERVICE",
    "num_bikes_available": 11,
    "num_docks_available": 8,
    "name": "PG. DE Lu00b4EXPOSICIu00d3, 38 /BLASCO GARAY",
    "post_code": "08004",
    "lat": 41.371532,
    "lng": 2.162203,
    "district": "Sants-Montjuu00efc",
    "district_code": "03",
    "suburb": "el Poble-sec",
    "suburb_code": "11"
  },
  {
    "station_id": "235",
    "status": "IN_SERVICE",
    "num_bikes_available": 13,
    "num_docks_available": 1,
    "name": "AV. PARAL.LEL, 98",
    "post_code": "08015",
    "lat": 41.3751767,
    "lng": 2.1658972,
    "district": "Eixample",
    "district_code": "02",
    "suburb": "Sant Antoni",
    "suburb_code": "10"
  },
  {
    "station_id": "236",
    "status": "IN_SERVICE",
    "num_bikes_available": 8,
    "num_docks_available": 17,
    "name": "AV. PARAL.LEL, 194",
    "post_code": "08015",
    "lat": 41.3751161,
    "lng": 2.1523091,
    "district": "Eixample",
    "district_code": "02",
    "suburb": "Sant Antoni",
    "suburb_code": "10"
  },
  {
    "station_id": "237",
    "status": "IN_SERVICE",
    "num_bikes_available": 3,
    "num_docks_available": 22,
    "name": "C/ RIUS I TAULET, 4",
    "post_code": "08004",
    "lat": 41.3727426,
    "lng": 2.1539198,
    "district": "Sants-Montjuu00efc",
    "district_code": "03",
    "suburb": "el Poble-sec",
    "suburb_code": "11"
  },
  {
    "station_id": "238",
    "status": "IN_SERVICE",
    "num_bikes_available": 16,
    "num_docks_available": 11,
    "name": "C/ ESPRONCEDA, 298",
    "post_code": "08027",
    "lat": 41.4158807,
    "lng": 2.1908473,
    "district": "Sant Andreu",
    "district_code": "09",
    "suburb": "Navas",
    "suburb_code": "63"
  },
  {
    "station_id": "239",
    "status": "IN_SERVICE",
    "num_bikes_available": 13,
    "num_docks_available": 12,
    "name": "C/ INDu00daSTRIA, 329",
    "post_code": "08027",
    "lat": 41.4172922,
    "lng": 2.1844769,
    "district": "Sant Andreu",
    "district_code": "09",
    "suburb": "Navas",
    "suburb_code": "63"
  },
  {
    "station_id": "240",
    "status": "IN_SERVICE",
    "num_bikes_available": 3,
    "num_docks_available": 22,
    "name": "C/ JOSEP ESTIVILL, 32",
    "post_code": "08027",
    "lat": 41.4175595,
    "lng": 2.1877153,
    "district": "Sant Andreu",
    "district_code": "09",
    "suburb": "Navas",
    "suburb_code": "63"
  },
  {
    "station_id": "241",
    "status": "IN_SERVICE",
    "num_bikes_available": 5,
    "num_docks_available": 21,
    "name": "C/ TEODOR LLORENTE, 1",
    "post_code": "08041",
    "lat": 41.419178,
    "lng": 2.18018,
    "district": "Horta-Guinardu00f3",
    "district_code": "07",
    "suburb": "el Guinardu00f3",
    "suburb_code": "35"
  },
  {
    "station_id": "242",
    "status": "IN_SERVICE",
    "num_bikes_available": 3,
    "num_docks_available": 20,
    "name": "C/ RAMON ALBu00d3, 1",
    "post_code": "08027",
    "lat": 41.4244527,
    "lng": 2.1773157,
    "district": "Sant Andreu",
    "district_code": "09",
    "suburb": "el Congru00e9s i els Indians",
    "suburb_code": "62"
  },
  {
    "station_id": "243",
    "status": "IN_SERVICE",
    "num_bikes_available": 13,
    "num_docks_available": 13,
    "name": "C/ ALEXANDRE GALu00cd, 1-5",
    "post_code": "08027",
    "lat": 41.4239719,
    "lng": 2.1812399,
    "district": "Sant Andreu",
    "district_code": "09",
    "suburb": "el Congru00e9s i els Indians",
    "suburb_code": "62"
  },
  {
    "station_id": "244",
    "status": "IN_SERVICE",
    "num_bikes_available": 7,
    "num_docks_available": 18,
    "name": "C/ FELIP II, 214",
    "post_code": "08027",
    "lat": 41.426925,
    "lng": 2.1786224,
    "district": "Sant Andreu",
    "district_code": "09",
    "suburb": "el Congru00e9s i els Indians",
    "suburb_code": "62"
  },
  {
    "station_id": "245",
    "status": "IN_SERVICE",
    "num_bikes_available": 2,
    "num_docks_available": 22,
    "name": "LA RAMBLA, 101",
    "post_code": "08002",
    "lat": 41.3826647,
    "lng": 2.1717083,
    "district": "Ciutat Vella",
    "district_code": "01",
    "suburb": "el Raval",
    "suburb_code": "01"
  },
  {
    "station_id": "246",
    "status": "IN_SERVICE",
    "num_bikes_available": 5,
    "num_docks_available": 12,
    "name": " C/ GARCILASO, 77",
    "post_code": "08027",
    "lat": 41.4228449,
    "lng": 2.1866363,
    "district": "Sant Andreu",
    "district_code": "09",
    "suburb": "la Sagrera",
    "suburb_code": "61"
  },
  {
    "station_id": "247",
    "status": "IN_SERVICE",
    "num_bikes_available": 3,
    "num_docks_available": 24,
    "name": "C/ FELIPE II, 112",
    "post_code": "08027",
    "lat": 41.4219291,
    "lng": 2.1849107,
    "district": "Sant Andreu",
    "district_code": "09",
    "suburb": "la Sagrera",
    "suburb_code": "61"
  },
  {
    "station_id": "248",
    "status": "IN_SERVICE",
    "num_bikes_available": 8,
    "num_docks_available": 17,
    "name": "C/ PALu00c8NCIA, 31",
    "post_code": "08027",
    "lat": 41.4182129,
    "lng": 2.1904005,
    "district": "Sant Andreu",
    "district_code": "09",
    "suburb": "la Sagrera",
    "suburb_code": "61"
  },
  {
    "station_id": "249",
    "status": "IN_SERVICE",
    "num_bikes_available": 17,
    "num_docks_available": 5,
    "name": "C/ ANTILLES, 8",
    "post_code": "08027",
    "lat": 41.4250835,
    "lng": 2.1872818,
    "district": "Sant Andreu",
    "district_code": "09",
    "suburb": "la Sagrera",
    "suburb_code": "61"
  },
  {
    "station_id": "250",
    "status": "IN_SERVICE",
    "num_bikes_available": 14,
    "num_docks_available": 11,
    "name": "C/ PORTUGAL, 3",
    "post_code": "08027",
    "lat": 41.4258248,
    "lng": 2.191206,
    "district": "Sant Andreu",
    "district_code": "09",
    "suburb": "la Sagrera",
    "suburb_code": "61"
  },
  {
    "station_id": "251",
    "status": "IN_SERVICE",
    "num_bikes_available": 6,
    "num_docks_available": 23,
    "name": "C/ CARDENAL TEDESCHINI, 13",
    "post_code": "08027",
    "lat": 41.4253643,
    "lng": 2.1852073,
    "district": "Sant Andreu",
    "district_code": "09",
    "suburb": "la Sagrera",
    "suburb_code": "61"
  },
  {
    "station_id": "252",
    "status": "IN_SERVICE",
    "num_bikes_available": 29,
    "num_docks_available": 2,
    "name": "RAMBLA DE L'ONZE DE SETEMBRE, 31",
    "post_code": "08030",
    "lat": 41.4298991,
    "lng": 2.1932159,
    "district": "Sant Andreu",
    "district_code": "09",
    "suburb": "Sant Andreu",
    "suburb_code": "60"
  },
  {
    "station_id": "253",
    "status": "IN_SERVICE",
    "num_bikes_available": 21,
    "num_docks_available": 5,
    "name": "C/ ONZE DE SETEMBRE, 37-39",
    "post_code": "08030",
    "lat": 41.4298614,
    "lng": 2.1922011,
    "district": "Sant Andreu",
    "district_code": "09",
    "suburb": "Sant Andreu",
    "suburb_code": "60"
  },
  {
    "station_id": "254",
    "status": "IN_SERVICE",
    "num_bikes_available": 12,
    "num_docks_available": 14,
    "name": "RAMBLA DE L'ONZE DE SETEMBRE, 69",
    "post_code": "08030",
    "lat": 41.4299999,
    "lng": 2.190246,
    "district": "Sant Andreu",
    "district_code": "09",
    "suburb": "Sant Andreu",
    "suburb_code": "60"
  },
  {
    "station_id": "255",
    "status": "IN_SERVICE",
    "num_bikes_available": 9,
    "num_docks_available": 3,
    "name": "C/ IRLANDA, 34",
    "post_code": "08030",
    "lat": 41.4315,
    "lng": 2.18579,
    "district": "Sant Andreu",
    "district_code": "09",
    "suburb": "Sant Andreu",
    "suburb_code": "60"
  },
  {
    "station_id": "256",
    "status": "IN_SERVICE",
    "num_bikes_available": 5,
    "num_docks_available": 23,
    "name": "C/ MALATS, 28-30",
    "post_code": "08030",
    "lat": 41.4361251,
    "lng": 2.1894423,
    "district": "Sant Andreu",
    "district_code": "09",
    "suburb": "Sant Andreu",
    "suburb_code": "60"
  },
  {
    "station_id": "257",
    "status": "IN_SERVICE",
    "num_bikes_available": 18,
    "num_docks_available": 5,
    "name": "C/ SANT ADRIu00c0, 2-8",
    "post_code": "08030",
    "lat": 41.433934,
    "lng": 2.1896502,
    "district": "Sant Andreu",
    "district_code": "09",
    "suburb": "Sant Andreu",
    "suburb_code": "60"
  },
  {
    "station_id": "258",
    "status": "IN_SERVICE",
    "num_bikes_available": 2,
    "num_docks_available": 21,
    "name": "C/ FERNANDO PESSOA, 45",
    "post_code": "08030",
    "lat": 41.4425034,
    "lng": 2.1929677,
    "district": "Sant Andreu",
    "district_code": "09",
    "suburb": "Sant Andreu",
    "suburb_code": "60"
  },
  {
    "station_id": "259",
    "status": "IN_SERVICE",
    "num_bikes_available": 17,
    "num_docks_available": 4,
    "name": "C/ DE BARTRINA, 14",
    "post_code": "08030",
    "lat": 41.4391174,
    "lng": 2.1858025,
    "district": "Sant Andreu",
    "district_code": "09",
    "suburb": "Sant Andreu",
    "suburb_code": "60"
  },
  {
    "station_id": "260",
    "status": "IN_SERVICE",
    "num_bikes_available": 19,
    "num_docks_available": 7,
    "name": "CARRER DEL CINCA, 7",
    "post_code": "08030",
    "lat": 41.4356895,
    "lng": 2.1920873,
    "district": "Sant Andreu",
    "district_code": "09",
    "suburb": "Sant Andreu",
    "suburb_code": "60"
  },
  {
    "station_id": "261",
    "status": "IN_SERVICE",
    "num_bikes_available": 1,
    "num_docks_available": 31,
    "name": "C/ VILLARROEL, 39",
    "post_code": "08011",
    "lat": 41.3821314,
    "lng": 2.1606534,
    "district": "Eixample",
    "district_code": "02",
    "suburb": "Sant Antoni",
    "suburb_code": "10"
  },
  {
    "station_id": "262",
    "status": "IN_SERVICE",
    "num_bikes_available": 14,
    "num_docks_available": 8,
    "name": "C/ ENTENu00c7A, 70",
    "post_code": "08015",
    "lat": 41.3790954666,
    "lng": 2.1516210084,
    "district": "Eixample",
    "district_code": "02",
    "suburb": "la Nova Esquerra de l'Eixample",
    "suburb_code": "09"
  },
  {
    "station_id": "263",
    "status": "IN_SERVICE",
    "num_bikes_available": 17,
    "num_docks_available": 3,
    "name": "PG. TORRAS I BAGES, 29",
    "post_code": "08030",
    "lat": 41.4378773,
    "lng": 2.1910691,
    "district": "Sant Andreu",
    "district_code": "09",
    "suburb": "Sant Andreu",
    "suburb_code": "60"
  },
  {
    "station_id": "264",
    "status": "IN_SERVICE",
    "num_bikes_available": 9,
    "num_docks_available": 23,
    "name": "C/REPu00daBLICA DOMINICANA,25(CENTRE COMERC",
    "post_code": "08030",
    "lat": 41.439929,
    "lng": 2.1970692,
    "district": "Sant Andreu",
    "district_code": "09",
    "suburb": "el Bon Pastor",
    "suburb_code": "59"
  },
  {
    "station_id": "265",
    "status": "IN_SERVICE",
    "num_bikes_available": 3,
    "num_docks_available": 22,
    "name": "C/ CASANOVA, 55",
    "post_code": "08011",
    "lat": 41.3847738,
    "lng": 2.1592566,
    "district": "Eixample",
    "district_code": "02",
    "suburb": "l'Antiga Esquerra de l'Eixample",
    "suburb_code": "08"
  },
  {
    "station_id": "266",
    "status": "IN_SERVICE",
    "num_bikes_available": 18,
    "num_docks_available": 8,
    "name": "C/ CONCEPCIu00d3 ARENAL, 176",
    "post_code": "08027",
    "lat": 41.4268952,
    "lng": 2.1842572,
    "district": "Sant Andreu",
    "district_code": "09",
    "suburb": "la Sagrera",
    "suburb_code": "61"
  },
  {
    "station_id": "267",
    "status": "IN_SERVICE",
    "num_bikes_available": 14,
    "num_docks_available": 10,
    "name": "PG. TORRAS I BAGES, 129",
    "post_code": "08030",
    "lat": 41.4433647,
    "lng": 2.1906302,
    "district": "Sant Andreu",
    "district_code": "09",
    "suburb": "Sant Andreu",
    "suburb_code": "60"
  },
  {
    "station_id": "268",
    "status": "IN_SERVICE",
    "num_bikes_available": 22,
    "num_docks_available": 5,
    "name": "C/ FERNANDO PESSOA, 72",
    "post_code": "08030",
    "lat": 41.4457195,
    "lng": 2.1929816,
    "district": "Sant Andreu",
    "district_code": "09",
    "suburb": "Sant Andreu",
    "suburb_code": "60"
  },
  {
    "station_id": "269",
    "status": "IN_SERVICE",
    "num_bikes_available": 7,
    "num_docks_available": 15,
    "name": "VIA BARCINO, 121",
    "post_code": "08033",
    "lat": 41.448152,
    "lng": 2.19294,
    "district": "Sant Andreu",
    "district_code": "09",
    "suburb": "la Trinitat Vella",
    "suburb_code": "57"
  },
  {
    "station_id": "270",
    "status": "IN_SERVICE",
    "num_bikes_available": 13,
    "num_docks_available": 13,
    "name": "CRTA. DE RIBES, 77 (TRINITAT VELLA)",
    "post_code": "08033",
    "lat": 41.4486328,
    "lng": 2.1898372,
    "district": "Sant Andreu",
    "district_code": "09",
    "suburb": "la Trinitat Vella",
    "suburb_code": "57"
  },
  {
    "station_id": "271",
    "status": "IN_SERVICE",
    "num_bikes_available": 10,
    "num_docks_available": 11,
    "name": "VIA BARCINO, 69",
    "post_code": "08033",
    "lat": 41.4506081,
    "lng": 2.1923629,
    "district": "Sant Andreu",
    "district_code": "09",
    "suburb": "la Trinitat Vella",
    "suburb_code": "57"
  },
  {
    "station_id": "272",
    "status": "IN_SERVICE",
    "num_bikes_available": 5,
    "num_docks_available": 20,
    "name": "C/ CONCEPCIu00d3 ARENAL, 281",
    "post_code": "08033",
    "lat": 41.4325013,
    "lng": 2.1842021,
    "district": "Sant Andreu",
    "district_code": "09",
    "suburb": "Sant Andreu",
    "suburb_code": "60"
  },
  {
    "station_id": "273",
    "status": "IN_SERVICE",
    "num_bikes_available": 15,
    "num_docks_available": 19,
    "name": "  C.C. Diagonal Mar-AV. MERIDIANA, 404",
    "post_code": "08030",
    "lat": 41.4304126,
    "lng": 2.1834174,
    "district": "Sant Andreu",
    "district_code": "09",
    "suburb": "Sant Andreu",
    "suburb_code": "60"
  },
  {
    "station_id": "274",
    "status": "IN_SERVICE",
    "num_bikes_available": 4,
    "num_docks_available": 25,
    "name": "RAMBLA FABRA I PUIG, 67",
    "post_code": "08030",
    "lat": 41.4299201,
    "lng": 2.1849813,
    "district": "Sant Andreu",
    "district_code": "09",
    "suburb": "Sant Andreu",
    "suburb_code": "60"
  },
  {
    "station_id": "275",
    "status": "IN_SERVICE",
    "num_bikes_available": 2,
    "num_docks_available": 25,
    "name": "AV. RIO DE JANEIRO, 3",
    "post_code": "08016",
    "lat": 41.43068,
    "lng": 2.1821802,
    "district": "Nou Barris",
    "district_code": "08",
    "suburb": "Porta",
    "suburb_code": "45"
  },
  {
    "station_id": "276",
    "status": "IN_SERVICE",
    "num_bikes_available": 11,
    "num_docks_available": 15,
    "name": "PLAu00c7A ALFONS X EL SAVI / RONDA DEL GUIN",
    "post_code": "08024",
    "lat": 41.4121345,
    "lng": 2.1652216,
    "district": "Horta-Guinardu00f3",
    "district_code": "07",
    "suburb": "el Baix Guinardu00f3",
    "suburb_code": "33"
  },
  {
    "station_id": "277",
    "status": "IN_SERVICE",
    "num_bikes_available": 9,
    "num_docks_available": 14,
    "name": "TRAVESSERA DE GRu00c0CIA, 328",
    "post_code": "08025",
    "lat": 41.4082107,
    "lng": 2.1689962,
    "district": "Horta-Guinardu00f3",
    "district_code": "07",
    "suburb": "el Baix Guinardu00f3",
    "suburb_code": "33"
  },
  {
    "station_id": "278",
    "status": "IN_SERVICE",
    "num_bikes_available": 12,
    "num_docks_available": 13,
    "name": "TRAVESSERA DE GRu00c0CIA, 368",
    "post_code": "08025",
    "lat": 41.4098842,
    "lng": 2.1715285,
    "district": "Horta-Guinardu00f3",
    "district_code": "07",
    "suburb": "el Baix Guinardu00f3",
    "suburb_code": "33"
  },
  {
    "station_id": "279",
    "status": "IN_SERVICE",
    "num_bikes_available": 4,
    "num_docks_available": 20,
    "name": "C/ MAS CASANOVAS, 137",
    "post_code": "08041",
    "lat": 41.4158995,
    "lng": 2.1745567,
    "district": "Horta-Guinardu00f3",
    "district_code": "07",
    "suburb": "el Guinardu00f3",
    "suburb_code": "35"
  },
  {
    "station_id": "280",
    "status": "IN_SERVICE",
    "num_bikes_available": 9,
    "num_docks_available": 14,
    "name": "C/ SANT ANTONI Mu00aa CLARET, 290-296",
    "post_code": "08041",
    "lat": 41.4138664,
    "lng": 2.1777274,
    "district": "Horta-Guinardu00f3",
    "district_code": "07",
    "suburb": "el Guinardu00f3",
    "suburb_code": "35"
  },
  {
    "station_id": "281",
    "status": "IN_SERVICE",
    "num_bikes_available": 4,
    "num_docks_available": 19,
    "name": "C/ D'ESCORNALBOU, 51",
    "post_code": "08041",
    "lat": 41.4180789,
    "lng": 2.1763994,
    "district": "Horta-Guinardu00f3",
    "district_code": "07",
    "suburb": "el Guinardu00f3",
    "suburb_code": "35"
  },
  {
    "station_id": "282",
    "status": "IN_SERVICE",
    "num_bikes_available": 2,
    "num_docks_available": 23,
    "name": "PG. FONT Du00b4EN- FARGAS, 1",
    "post_code": "08031",
    "lat": 41.4275514,
    "lng": 2.1659881,
    "district": "Horta-Guinardu00f3",
    "district_code": "07",
    "suburb": "la Font d'en Fargues",
    "suburb_code": "36"
  },
  {
    "station_id": "283",
    "status": "IN_SERVICE",
    "num_bikes_available": 1,
    "num_docks_available": 17,
    "name": "C/ FULTON, 1",
    "post_code": "08032",
    "lat": 41.4297231,
    "lng": 2.1617032,
    "district": "Horta-Guinardu00f3",
    "district_code": "07",
    "suburb": "Horta",
    "suburb_code": "43"
  },
  {
    "station_id": "284",
    "status": "IN_SERVICE",
    "num_bikes_available": 12,
    "num_docks_available": 15,
    "name": "AV. DIAGONAL, 652",
    "post_code": "08034",
    "lat": 41.389462,
    "lng": 2.1314948,
    "district": "Les Corts",
    "district_code": "04",
    "suburb": "les Corts",
    "suburb_code": "19"
  },
  {
    "station_id": "285",
    "status": "IN_SERVICE",
    "num_bikes_available": 5,
    "num_docks_available": 10,
    "name": "C/ MALATS, 98-100",
    "post_code": "08030",
    "lat": 41.4366708,
    "lng": 2.186105,
    "district": "Sant Andreu",
    "district_code": "09",
    "suburb": "Sant Andreu",
    "suburb_code": "60"
  },
  {
    "station_id": "286",
    "status": "IN_SERVICE",
    "num_bikes_available": 3,
    "num_docks_available": 11,
    "name": "C/ BOLu00cdVIA, 76",
    "post_code": "08018",
    "lat": 41.4030225,
    "lng": 2.1913538,
    "district": "Sant Martu00ed",
    "district_code": "10",
    "suburb": "el Parc i la Llacuna del Poblenou",
    "suburb_code": "66"
  },
  {
    "station_id": "287",
    "status": "EMPTY",
    "num_bikes_available": 0,
    "num_docks_available": 16,
    "name": "GRAN VIA DE LES CORTS CATALANES, 632",
    "post_code": "08007",
    "lat": 41.3890626,
    "lng": 2.1679313,
    "district": "Eixample",
    "district_code": "02",
    "suburb": "la Dreta de l'Eixample",
    "suburb_code": "07"
  },
  {
    "station_id": "288",
    "status": "IN_SERVICE",
    "num_bikes_available": 1,
    "num_docks_available": 31,
    "name": "PL. VIRREI AMAT",
    "post_code": "08016",
    "lat": 41.4296439,
    "lng": 2.174444,
    "district": "Nou Barris",
    "district_code": "08",
    "suburb": "Vilapicina i la Torre Llobeta",
    "suburb_code": "44"
  },
  {
    "station_id": "289",
    "status": "IN_SERVICE",
    "num_bikes_available": 5,
    "num_docks_available": 19,
    "name": "C/ Mu00daRCIA, 64",
    "post_code": "08027",
    "lat": 41.4166982,
    "lng": 2.1909952,
    "district": "Sant Andreu",
    "district_code": "09",
    "suburb": "Navas",
    "suburb_code": "63"
  },
  {
    "station_id": "290",
    "status": "IN_SERVICE",
    "num_bikes_available": 4,
    "num_docks_available": 11,
    "name": "PL. DELS JARDINS D'ALFu00c0BIA, 1",
    "post_code": "08016",
    "lat": 41.4373376,
    "lng": 2.1740962,
    "district": "Nou Barris",
    "district_code": "08",
    "suburb": "Porta",
    "suburb_code": "45"
  },
  {
    "station_id": "291",
    "status": "IN_SERVICE",
    "num_bikes_available": 8,
    "num_docks_available": 18,
    "name": "C/ CUBELLES, 2",
    "post_code": "08031",
    "lat": 41.426078,
    "lng": 2.1751572,
    "district": "Nou Barris",
    "district_code": "08",
    "suburb": "Vilapicina i la Torre Llobeta",
    "suburb_code": "44"
  },
  {
    "station_id": "292",
    "status": "IN_SERVICE",
    "num_bikes_available": 3,
    "num_docks_available": 8,
    "name": "C/ AMILCAR, 1",
    "post_code": "08031",
    "lat": 41.4300161,
    "lng": 2.1720191,
    "district": "Nou Barris",
    "district_code": "08",
    "suburb": "Vilapicina i la Torre Llobeta",
    "suburb_code": "44"
  },
  {
    "station_id": "293",
    "status": "IN_SERVICE",
    "num_bikes_available": 1,
    "num_docks_available": 22,
    "name": "C/ GRANOLLERS, 1",
    "post_code": "08032",
    "lat": 41.4283127,
    "lng": 2.1629889,
    "district": "Horta-Guinardu00f3",
    "district_code": "07",
    "suburb": "Horta",
    "suburb_code": "43"
  },
  {
    "station_id": "294",
    "status": "IN_SERVICE",
    "num_bikes_available": 15,
    "num_docks_available": 8,
    "name": "SEU DEL DISTRICTE (NOU BARRIS)",
    "post_code": "08042",
    "lat": 41.4363473,
    "lng": 2.1706752,
    "district": "Nou Barris",
    "district_code": "08",
    "suburb": "la Guineueta",
    "suburb_code": "48"
  },
  {
    "station_id": "295",
    "status": "IN_SERVICE",
    "num_bikes_available": 5,
    "num_docks_available": 22,
    "name": "C/ SANT ISCLE, 60",
    "post_code": "08031",
    "lat": 41.433384,
    "lng": 2.1716309,
    "district": "Nou Barris",
    "district_code": "08",
    "suburb": "el Turu00f3 de la Peira",
    "suburb_code": "46"
  },
  {
    "station_id": "296",
    "status": "IN_SERVICE",
    "num_bikes_available": 19,
    "num_docks_available": 12,
    "name": "C/ DE ROSSELLu00d3 I PORCEL, 1/AV.MERIDIANA",
    "post_code": "08016",
    "lat": 41.4364887,
    "lng": 2.1841014,
    "district": "Nou Barris",
    "district_code": "08",
    "suburb": "Porta",
    "suburb_code": "45"
  },
  {
    "station_id": "297",
    "status": "IN_SERVICE",
    "num_bikes_available": 19,
    "num_docks_available": 2,
    "name": "C/ TURu00d3 BLAU, 1-3",
    "post_code": "08016",
    "lat": 41.4388223,
    "lng": 2.1767828,
    "district": "Nou Barris",
    "district_code": "08",
    "suburb": "la Prosperitat",
    "suburb_code": "52"
  },
  {
    "station_id": "298",
    "status": "IN_SERVICE",
    "num_bikes_available": 5,
    "num_docks_available": 27,
    "name": "C/ ANDREU NIN, 22",
    "post_code": "08016",
    "lat": 41.4347233,
    "lng": 2.1817718,
    "district": "Nou Barris",
    "district_code": "08",
    "suburb": "Porta",
    "suburb_code": "45"
  },
  {
    "station_id": "299",
    "status": "IN_SERVICE",
    "num_bikes_available": 15,
    "num_docks_available": 10,
    "name": "C/ DE L'ESCULTOR ORDu00d3u00d1EZ, 55",
    "post_code": "08016",
    "lat": 41.4340849,
    "lng": 2.1748267,
    "district": "Nou Barris",
    "district_code": "08",
    "suburb": "Porta",
    "suburb_code": "45"
  },
  {
    "station_id": "300",
    "status": "IN_SERVICE",
    "num_bikes_available": 9,
    "num_docks_available": 9,
    "name": "C/ DE MALADETA, 1",
    "post_code": "08016",
    "lat": 41.4315843,
    "lng": 2.1769107,
    "district": "Nou Barris",
    "district_code": "08",
    "suburb": "Porta",
    "suburb_code": "45"
  },
  {
    "station_id": "301",
    "status": "IN_SERVICE",
    "num_bikes_available": 6,
    "num_docks_available": 21,
    "name": "C/ MARIE CURIE, 8-14",
    "post_code": "08042",
    "lat": 41.4366871,
    "lng": 2.1693134,
    "district": "Nou Barris",
    "district_code": "08",
    "suburb": "la Guineueta",
    "suburb_code": "48"
  },
  {
    "station_id": "302",
    "status": "IN_SERVICE",
    "num_bikes_available": 15,
    "num_docks_available": 17,
    "name": "SEIDOR-C/ CAVALLERS, 41",
    "post_code": "08034",
    "lat": 41.3906352,
    "lng": 2.111541,
    "district": "Les Corts",
    "district_code": "04",
    "suburb": "Pedralbes",
    "suburb_code": "21"
  },
  {
    "station_id": "303",
    "status": "IN_SERVICE",
    "num_bikes_available": 6,
    "num_docks_available": 21,
    "name": "C/ CAVALLERS, 67",
    "post_code": "08034",
    "lat": 41.3934324,
    "lng": 2.115107,
    "district": "Les Corts",
    "district_code": "04",
    "suburb": "Pedralbes",
    "suburb_code": "21"
  },
  {
    "station_id": "304",
    "status": "IN_SERVICE",
    "num_bikes_available": 2,
    "num_docks_available": 22,
    "name": "PG. MANUEL GIRONA, 7",
    "post_code": "08034",
    "lat": 41.39038,
    "lng": 2.121,
    "district": "Sarriu00e0-Sant Gervasi",
    "district_code": "05",
    "suburb": "Sarriu00e0",
    "suburb_code": "23"
  },
  {
    "station_id": "305",
    "status": "IN_SERVICE",
    "num_bikes_available": 8,
    "num_docks_available": 18,
    "name": "AV. DIAGONAL, 680",
    "post_code": "08034",
    "lat": 41.3875297,
    "lng": 2.1237141,
    "district": "Les Corts",
    "district_code": "04",
    "suburb": "Pedralbes",
    "suburb_code": "21"
  },
  {
    "station_id": "306",
    "status": "IN_SERVICE",
    "num_bikes_available": 8,
    "num_docks_available": 22,
    "name": "C/ DOCTOR SALVADOR CARDENAL, 1-5",
    "post_code": "08028",
    "lat": 41.3853868,
    "lng": 2.122893,
    "district": "Les Corts",
    "district_code": "04",
    "suburb": "la Maternitat i Sant Ramon",
    "suburb_code": "20"
  },
  {
    "station_id": "307",
    "status": "IN_SERVICE",
    "num_bikes_available": 6,
    "num_docks_available": 25,
    "name": "C/ PINTOR RIBALTA / AV. XILE",
    "post_code": "08028",
    "lat": 41.3791986,
    "lng": 2.1135824,
    "district": "Les Corts",
    "district_code": "04",
    "suburb": "la Maternitat i Sant Ramon",
    "suburb_code": "20"
  },
  {
    "station_id": "308",
    "status": "IN_SERVICE",
    "num_bikes_available": 11,
    "num_docks_available": 12,
    "name": "C/ CARDENAL REIG, 11",
    "post_code": "08028",
    "lat": 41.37684,
    "lng": 2.114029,
    "district": "Les Corts",
    "district_code": "04",
    "suburb": "la Maternitat i Sant Ramon",
    "suburb_code": "20"
  },
  {
    "station_id": "309",
    "status": "IN_SERVICE",
    "num_bikes_available": 11,
    "num_docks_available": 7,
    "name": "C/ SANT RAMON NONAT,  26",
    "post_code": "08028",
    "lat": 41.3770199,
    "lng": 2.1169828,
    "district": "Les Corts",
    "district_code": "04",
    "suburb": "la Maternitat i Sant Ramon",
    "suburb_code": "20"
  },
  {
    "station_id": "310",
    "status": "EMPTY",
    "num_bikes_available": 0,
    "num_docks_available": 27,
    "name": "C/ JOSEP SAMITIER / JOAN XXIII",
    "post_code": "08028",
    "lat": 41.3812111,
    "lng": 2.1190863,
    "district": "Les Corts",
    "district_code": "04",
    "suburb": "la Maternitat i Sant Ramon",
    "suburb_code": "20"
  },
  {
    "station_id": "311",
    "status": "IN_SERVICE",
    "num_bikes_available": 5,
    "num_docks_available": 15,
    "name": "C/ GALLEGO, 2",
    "post_code": "08028",
    "lat": 41.3785631,
    "lng": 2.1202487,
    "district": "Les Corts",
    "district_code": "04",
    "suburb": "la Maternitat i Sant Ramon",
    "suburb_code": "20"
  },
  {
    "station_id": "312",
    "status": "IN_SERVICE",
    "num_bikes_available": 12,
    "num_docks_available": 22,
    "name": "C/ ARIZALA, 77",
    "post_code": "08028",
    "lat": 41.3789061,
    "lng": 2.1233038,
    "district": "Les Corts",
    "district_code": "04",
    "suburb": "la Maternitat i Sant Ramon",
    "suburb_code": "20"
  },
  {
    "station_id": "313",
    "status": "IN_SERVICE",
    "num_bikes_available": 6,
    "num_docks_available": 22,
    "name": "C/ FELIU DE CASANOVA, 1",
    "post_code": "08028",
    "lat": 41.3754188,
    "lng": 2.1297823,
    "district": "Sants-Montjuu00efc",
    "district_code": "03",
    "suburb": "Sants - Badal",
    "suburb_code": "17"
  },
  {
    "station_id": "314",
    "status": "IN_SERVICE",
    "num_bikes_available": 17,
    "num_docks_available": 4,
    "name": "RAMBLA DEL BRASIL, 44",
    "post_code": "08028",
    "lat": 41.3783067,
    "lng": 2.1297303,
    "district": "Sants-Montjuu00efc",
    "district_code": "03",
    "suburb": "Sants",
    "suburb_code": "18"
  },
  {
    "station_id": "315",
    "status": "IN_SERVICE",
    "num_bikes_available": 4,
    "num_docks_available": 22,
    "name": "C/ DEL GUINARDu00d3, 32-38",
    "post_code": "08041",
    "lat": 41.4156285,
    "lng": 2.1817876,
    "district": "Sant Martu00ed",
    "district_code": "10",
    "suburb": "el Camp de l'Arpa del Clot",
    "suburb_code": "64"
  },
  {
    "station_id": "316",
    "status": "IN_SERVICE",
    "num_bikes_available": 10,
    "num_docks_available": 15,
    "name": "C/ CANTu00c0BRIA, 55",
    "post_code": "08020",
    "lat": 41.4224015,
    "lng": 2.198071,
    "district": "Sant Martu00ed",
    "district_code": "10",
    "suburb": "la Verneda i la Pau",
    "suburb_code": "73"
  },
  {
    "station_id": "317",
    "status": "IN_SERVICE",
    "num_bikes_available": 13,
    "num_docks_available": 11,
    "name": "RAMBLA DE PRIM, 256",
    "post_code": "08020",
    "lat": 41.4256626,
    "lng": 2.2008632,
    "district": "Sant Martu00ed",
    "district_code": "10",
    "suburb": "la Verneda i la Pau",
    "suburb_code": "73"
  },
  {
    "station_id": "318",
    "status": "IN_SERVICE",
    "num_bikes_available": 4,
    "num_docks_available": 26,
    "name": "C/ CASTILLEJOS, 388",
    "post_code": "08025",
    "lat": 41.412427,
    "lng": 2.170592,
    "district": "Horta-Guinardu00f3",
    "district_code": "07",
    "suburb": "el Baix Guinardu00f3",
    "suburb_code": "33"
  },
  {
    "station_id": "319",
    "status": "IN_SERVICE",
    "num_bikes_available": 6,
    "num_docks_available": 19,
    "name": "C/ SAGUu00c9S, 1",
    "post_code": "08021",
    "lat": 41.3937414,
    "lng": 2.1455022,
    "district": "Sarriu00e0-Sant Gervasi",
    "district_code": "05",
    "suburb": "Sant Gervasi - Galvany",
    "suburb_code": "26"
  },
  {
    "station_id": "320",
    "status": "IN_SERVICE",
    "num_bikes_available": 1,
    "num_docks_available": 21,
    "name": "C/ MADRAZO, 39",
    "post_code": "08006",
    "lat": 41.400305,
    "lng": 2.149144,
    "district": "Sarriu00e0-Sant Gervasi",
    "district_code": "05",
    "suburb": "Sant Gervasi - Galvany",
    "suburb_code": "26"
  },
  {
    "station_id": "321",
    "status": "IN_SERVICE",
    "num_bikes_available": 2,
    "num_docks_available": 22,
    "name": "C/ SANT HERMENEGILD, 30",
    "post_code": "08006",
    "lat": 41.4031529,
    "lng": 2.1445843,
    "district": "Sarriu00e0-Sant Gervasi",
    "district_code": "05",
    "suburb": "el Putxet i el Farru00f3",
    "suburb_code": "27"
  },
  {
    "station_id": "322",
    "status": "EMPTY",
    "num_bikes_available": 0,
    "num_docks_available": 24,
    "name": "C/ SANTALu00d3, 165",
    "post_code": "08021",
    "lat": 41.4009,
    "lng": 2.13892,
    "district": "Sarriu00e0-Sant Gervasi",
    "district_code": "05",
    "suburb": "Sant Gervasi - Galvany",
    "suburb_code": "26"
  },
  {
    "station_id": "323",
    "status": "IN_SERVICE",
    "num_bikes_available": 7,
    "num_docks_available": 20,
    "name": "C/ VALLMAJOR, 13",
    "post_code": "08021",
    "lat": 41.3981616,
    "lng": 2.1386719,
    "district": "Sarriu00e0-Sant Gervasi",
    "district_code": "05",
    "suburb": "Sant Gervasi - Galvany",
    "suburb_code": "26"
  },
  {
    "station_id": "324",
    "status": "IN_SERVICE",
    "num_bikes_available": 2,
    "num_docks_available": 24,
    "name": "C/ REINA VICTORIA, 31",
    "post_code": "08021",
    "lat": 41.3969455,
    "lng": 2.136346,
    "district": "Sarriu00e0-Sant Gervasi",
    "district_code": "05",
    "suburb": "Sant Gervasi - Galvany",
    "suburb_code": "26"
  },
  {
    "station_id": "325",
    "status": "IN_SERVICE",
    "num_bikes_available": 5,
    "num_docks_available": 18,
    "name": "C/ ALT DE GIRONELLA, 13",
    "post_code": "08017",
    "lat": 41.3949601,
    "lng": 2.1302775,
    "district": "Sarriu00e0-Sant Gervasi",
    "district_code": "05",
    "suburb": "les Tres Torres",
    "suburb_code": "24"
  },
  {
    "station_id": "326",
    "status": "IN_SERVICE",
    "num_bikes_available": 2,
    "num_docks_available": 29,
    "name": "C/ BALMES, 409",
    "post_code": "08022",
    "lat": 41.4074131,
    "lng": 2.1381069,
    "district": "Sarriu00e0-Sant Gervasi",
    "district_code": "05",
    "suburb": "Sant Gervasi - la Bonanova",
    "suburb_code": "25"
  },
  {
    "station_id": "327",
    "status": "IN_SERVICE",
    "num_bikes_available": 1,
    "num_docks_available": 23,
    "name": "C/ REUS, 23",
    "post_code": "08022",
    "lat": 41.4050074,
    "lng": 2.134603,
    "district": "Sarriu00e0-Sant Gervasi",
    "district_code": "05",
    "suburb": "Sant Gervasi - la Bonanova",
    "suburb_code": "25"
  },
  {
    "station_id": "328",
    "status": "IN_SERVICE",
    "num_bikes_available": 5,
    "num_docks_available": 21,
    "name": "C/ ARTESA DE SEGRE, 2",
    "post_code": "08022",
    "lat": 41.402988,
    "lng": 2.1344691,
    "district": "Sarriu00e0-Sant Gervasi",
    "district_code": "05",
    "suburb": "Sant Gervasi - la Bonanova",
    "suburb_code": "25"
  },
  {
    "station_id": "329",
    "status": "IN_SERVICE",
    "num_bikes_available": 1,
    "num_docks_available": 25,
    "name": "C/ DE LES ESCOLES PIES, 99",
    "post_code": "08017",
    "lat": 41.4029965,
    "lng": 2.1283866,
    "district": "Sarriu00e0-Sant Gervasi",
    "district_code": "05",
    "suburb": "les Tres Torres",
    "suburb_code": "24"
  },
  {
    "station_id": "330",
    "status": "IN_SERVICE",
    "num_bikes_available": 13,
    "num_docks_available": 13,
    "name": "C/ PAU ALCOVER, 94",
    "post_code": "08017",
    "lat": 41.401883,
    "lng": 2.131524,
    "district": "Sarriu00e0-Sant Gervasi",
    "district_code": "05",
    "suburb": "les Tres Torres",
    "suburb_code": "24"
  },
  {
    "station_id": "331",
    "status": "IN_SERVICE",
    "num_bikes_available": 9,
    "num_docks_available": 21,
    "name": "C/ CASTELLNOU, 65",
    "post_code": "08017",
    "lat": 41.3970497,
    "lng": 2.1279409,
    "district": "Sarriu00e0-Sant Gervasi",
    "district_code": "05",
    "suburb": "les Tres Torres",
    "suburb_code": "24"
  },
  {
    "station_id": "332",
    "status": "IN_SERVICE",
    "num_bikes_available": 3,
    "num_docks_available": 23,
    "name": "C/ DOCTOR ROUX, 86",
    "post_code": "08017",
    "lat": 41.3998981,
    "lng": 2.1281922,
    "district": "Sarriu00e0-Sant Gervasi",
    "district_code": "05",
    "suburb": "les Tres Torres",
    "suburb_code": "24"
  },
  {
    "station_id": "333",
    "status": "IN_SERVICE",
    "num_bikes_available": 2,
    "num_docks_available": 24,
    "name": "PASSATGE DE SENILLOSA, 3-5",
    "post_code": "08034",
    "lat": 41.3954723,
    "lng": 2.1250451,
    "district": "Sarriu00e0-Sant Gervasi",
    "district_code": "05",
    "suburb": "Sarriu00e0",
    "suburb_code": "23"
  },
  {
    "station_id": "334",
    "status": "IN_SERVICE",
    "num_bikes_available": 6,
    "num_docks_available": 17,
    "name": "PG. BONANOVA, 100",
    "post_code": "08017",
    "lat": 41.400793,
    "lng": 2.122889,
    "district": "Sarriu00e0-Sant Gervasi",
    "district_code": "05",
    "suburb": "Sarriu00e0",
    "suburb_code": "23"
  },
  {
    "station_id": "335",
    "status": "IN_SERVICE",
    "num_bikes_available": 2,
    "num_docks_available": 23,
    "name": "C/ SANTA AMu00c8LIA, 2",
    "post_code": "08034",
    "lat": 41.3935355,
    "lng": 2.1231228,
    "district": "Sarriu00e0-Sant Gervasi",
    "district_code": "05",
    "suburb": "Sarriu00e0",
    "suburb_code": "23"
  },
  {
    "station_id": "336",
    "status": "IN_SERVICE",
    "num_bikes_available": 5,
    "num_docks_available": 19,
    "name": "C/ CAPONATA, 20",
    "post_code": "08034",
    "lat": 41.3953855,
    "lng": 2.1210928,
    "district": "Sarriu00e0-Sant Gervasi",
    "district_code": "05",
    "suburb": "Sarriu00e0",
    "suburb_code": "23"
  },
  {
    "station_id": "337",
    "status": "IN_SERVICE",
    "num_bikes_available": 12,
    "num_docks_available": 11,
    "name": "C/ CARME KARR, 12-14",
    "post_code": "08034",
    "lat": 41.3986238,
    "lng": 2.1204941,
    "district": "Sarriu00e0-Sant Gervasi",
    "district_code": "05",
    "suburb": "Sarriu00e0",
    "suburb_code": "23"
  },
  {
    "station_id": "338",
    "status": "IN_SERVICE",
    "num_bikes_available": 1,
    "num_docks_available": 35,
    "name": "AV. JOSEP VICENu00c7 FOIX, 63",
    "post_code": "08034",
    "lat": 41.3977227,
    "lng": 2.1194557,
    "district": "Sarriu00e0-Sant Gervasi",
    "district_code": "05",
    "suburb": "Sarriu00e0",
    "suburb_code": "23"
  },
  {
    "station_id": "339",
    "status": "IN_SERVICE",
    "num_bikes_available": 3,
    "num_docks_available": 22,
    "name": "C/ RAMON TURRu00d3, 246",
    "post_code": "08005",
    "lat": 41.4017084,
    "lng": 2.2053803,
    "district": "Sant Martu00ed",
    "district_code": "10",
    "suburb": "el Poblenou",
    "suburb_code": "68"
  },
  {
    "station_id": "340",
    "status": "IN_SERVICE",
    "num_bikes_available": 13,
    "num_docks_available": 8,
    "name": "C/ SANT ADRIu00c0, 113",
    "post_code": "08030",
    "lat": 41.4361782,
    "lng": 2.2047037,
    "district": "Sant Andreu",
    "district_code": "09",
    "suburb": "el Bon Pastor",
    "suburb_code": "59"
  },
  {
    "station_id": "341",
    "status": "IN_SERVICE",
    "num_bikes_available": 13,
    "num_docks_available": 13,
    "name": "PG. D'ENRIC SANCHIS, 33",
    "post_code": "08030",
    "lat": 41.4339212,
    "lng": 2.2062245,
    "district": "Sant Andreu",
    "district_code": "09",
    "suburb": "el Bon Pastor",
    "suburb_code": "59"
  },
  {
    "station_id": "342",
    "status": "IN_SERVICE",
    "num_bikes_available": 2,
    "num_docks_available": 25,
    "name": "C/ ROC BORONAT, 134",
    "post_code": "08018",
    "lat": 41.4034967,
    "lng": 2.1936584,
    "district": "Sant Martu00ed",
    "district_code": "10",
    "suburb": "el Parc i la Llacuna del Poblenou",
    "suburb_code": "66"
  },
  {
    "station_id": "343",
    "status": "IN_SERVICE",
    "num_bikes_available": 8,
    "num_docks_available": 16,
    "name": "CAMPANA DE LA MAQUINISTA (SAO PAULO I P",
    "post_code": "08030",
    "lat": 41.4389609,
    "lng": 2.1996179,
    "district": "Sant Andreu",
    "district_code": "09",
    "suburb": "el Bon Pastor",
    "suburb_code": "59"
  },
  {
    "station_id": "344",
    "status": "IN_SERVICE",
    "num_bikes_available": 12,
    "num_docks_available": 13,
    "name": "C/ CIUTAT D'ASUNCIu00d3N, 73 / POTOSu00cd",
    "post_code": "08030",
    "lat": 41.4431441,
    "lng": 2.1996045,
    "district": "Sant Andreu",
    "district_code": "09",
    "suburb": "Baru00f3 de Viver",
    "suburb_code": "58"
  },
  {
    "station_id": "345",
    "status": "IN_SERVICE",
    "num_bikes_available": 30,
    "num_docks_available": 1,
    "name": "PL. TERESA DE CLARAMUNT/C/ DELS FERROCA",
    "post_code": "08038",
    "lat": 41.3631066,
    "lng": 2.1398322,
    "district": "Sants-Montjuu00efc",
    "district_code": "03",
    "suburb": "la Marina de Port",
    "suburb_code": "13"
  },
  {
    "station_id": "346",
    "status": "IN_SERVICE",
    "num_bikes_available": 31,
    "num_docks_available": 4,
    "name": "PG. ZONA FRANCA, 182",
    "post_code": "08038",
    "lat": 41.360798,
    "lng": 2.138931,
    "district": "Sants-Montjuu00efc",
    "district_code": "03",
    "suburb": "la Marina de Port",
    "suburb_code": "13"
  },
  {
    "station_id": "347",
    "status": "IN_SERVICE",
    "num_bikes_available": 27,
    "num_docks_available": 2,
    "name": "C/ ALTS FORNS, 77",
    "post_code": "08038",
    "lat": 41.3595484,
    "lng": 2.1417765,
    "district": "Sants-Montjuu00efc",
    "district_code": "03",
    "suburb": "la Marina de Port",
    "suburb_code": "13"
  },
  {
    "station_id": "348",
    "status": "IN_SERVICE",
    "num_bikes_available": 14,
    "num_docks_available": 17,
    "name": "JARDINS DE CAN FERRERO/PG.DE LA ZONA FR",
    "post_code": "08038",
    "lat": 41.357067,
    "lng": 2.141563,
    "district": "Sants-Montjuu00efc",
    "district_code": "03",
    "suburb": "la Marina de Port",
    "suburb_code": "13"
  },
  {
    "station_id": "349",
    "status": "IN_SERVICE",
    "num_bikes_available": 11,
    "num_docks_available": 20,
    "name": "C/ DE L'ENERGIA, 2 / ALTS FORNS",
    "post_code": "08038",
    "lat": 41.3573288,
    "lng": 2.1371996,
    "district": "Sants-Montjuu00efc",
    "district_code": "03",
    "suburb": "la Marina de Port",
    "suburb_code": "13"
  },
  {
    "station_id": "350",
    "status": "IN_SERVICE",
    "num_bikes_available": 4,
    "num_docks_available": 24,
    "name": "C/ VILLARROEL, 208",
    "post_code": "08036",
    "lat": 41.392052,
    "lng": 2.1480223,
    "district": "Eixample",
    "district_code": "02",
    "suburb": "l'Antiga Esquerra de l'Eixample",
    "suburb_code": "08"
  },
  {
    "station_id": "351",
    "status": "IN_SERVICE",
    "num_bikes_available": 25,
    "num_docks_available": 5,
    "name": "C/ JANE ADDAMS, 26/ CRTA. DEL PRAT",
    "post_code": "08038",
    "lat": 41.3621232,
    "lng": 2.1356187,
    "district": "Sants-Montjuu00efc",
    "district_code": "03",
    "suburb": "la Marina de Port",
    "suburb_code": "13"
  },
  {
    "station_id": "352",
    "status": "IN_SERVICE",
    "num_bikes_available": 1,
    "num_docks_available": 25,
    "name": "C/RADI,10/GRAN VIA DE LES CORTS CATALA",
    "post_code": "08038",
    "lat": 41.363279,
    "lng": 2.1341586,
    "district": "Sants-Montjuu00efc",
    "district_code": "03",
    "suburb": "la Marina de Port",
    "suburb_code": "13"
  },
  {
    "station_id": "353",
    "status": "IN_SERVICE",
    "num_bikes_available": 14,
    "num_docks_available": 13,
    "name": "C/ MUNNu00c9  2-6",
    "post_code": "08028",
    "lat": 41.37541,
    "lng": 2.1232547,
    "district": "Sants-Montjuu00efc",
    "district_code": "03",
    "suburb": "Sants - Badal",
    "suburb_code": "17"
  },
  {
    "station_id": "354",
    "status": "IN_SERVICE",
    "num_bikes_available": 5,
    "num_docks_available": 22,
    "name": "RAMBLA DEL BRASIL, 5",
    "post_code": "08028",
    "lat": 41.3759419,
    "lng": 2.1299539,
    "district": "Sants-Montjuu00efc",
    "district_code": "03",
    "suburb": "Sants - Badal",
    "suburb_code": "17"
  },
  {
    "station_id": "355",
    "status": "IN_SERVICE",
    "num_bikes_available": 20,
    "num_docks_available": 3,
    "name": "C/ RIERA BLANCA, 123",
    "post_code": "08028",
    "lat": 41.371459,
    "lng": 2.127854,
    "district": "Sants-Montjuu00efc",
    "district_code": "03",
    "suburb": "Sants - Badal",
    "suburb_code": "17"
  },
  {
    "station_id": "356",
    "status": "IN_SERVICE",
    "num_bikes_available": 9,
    "num_docks_available": 14,
    "name": "C/ CAMu00c8LIES, 73",
    "post_code": "08024",
    "lat": 41.4134503,
    "lng": 2.1631012,
    "district": "Horta-Guinardu00f3",
    "district_code": "07",
    "suburb": "el Baix Guinardu00f3",
    "suburb_code": "33"
  },
  {
    "station_id": "357",
    "status": "IN_SERVICE",
    "num_bikes_available": 9,
    "num_docks_available": 12,
    "name": "C/ CARDENER, 59",
    "post_code": "08024",
    "lat": 41.4105956,
    "lng": 2.1579897,
    "district": "Gru00e0cia",
    "district_code": "06",
    "suburb": "la Salut",
    "suburb_code": "30"
  },
  {
    "station_id": "358",
    "status": "FULL",
    "num_bikes_available": 25,
    "num_docks_available": 0,
    "name": "C/ GOMBAU, 24",
    "post_code": "08003",
    "lat": 41.3872437,
    "lng": 2.1793035,
    "district": "Ciutat Vella",
    "district_code": "01",
    "suburb": "Sant Pere, Santa Caterina i la Ribera",
    "suburb_code": "04"
  },
  {
    "station_id": "359",
    "status": "IN_SERVICE",
    "num_bikes_available": 24,
    "num_docks_available": 1,
    "name": "C/ Mu00c9NDEZ Nu00dau00d1EZ, 16",
    "post_code": "08003",
    "lat": 41.3900544,
    "lng": 2.1775594,
    "district": "Ciutat Vella",
    "district_code": "01",
    "suburb": "Sant Pere, Santa Caterina i la Ribera",
    "suburb_code": "04"
  },
  {
    "station_id": "360",
    "status": "IN_SERVICE",
    "num_bikes_available": 2,
    "num_docks_available": 23,
    "name": "C/ BAILu00c9N, 62",
    "post_code": "08009",
    "lat": 41.3952527,
    "lng": 2.1730023,
    "district": "Eixample",
    "district_code": "02",
    "suburb": "la Dreta de l'Eixample",
    "suburb_code": "07"
  },
  {
    "station_id": "361",
    "status": "IN_SERVICE",
    "num_bikes_available": 20,
    "num_docks_available": 11,
    "name": "PG. DE COLOM (LES RAMBLES)",
    "post_code": "08039",
    "lat": 41.37652,
    "lng": 2.17881,
    "district": "Ciutat Vella",
    "district_code": "01",
    "suburb": "el Barri Gu00f2tic",
    "suburb_code": "02"
  },
  {
    "station_id": "362",
    "status": "IN_SERVICE",
    "num_bikes_available": 8,
    "num_docks_available": 19,
    "name": "C/ BAILu00c9N, 100",
    "post_code": "08009",
    "lat": 41.396994,
    "lng": 2.1706323,
    "district": "Eixample",
    "district_code": "02",
    "suburb": "la Dreta de l'Eixample",
    "suburb_code": "07"
  },
  {
    "station_id": "363",
    "status": "IN_SERVICE",
    "num_bikes_available": 7,
    "num_docks_available": 16,
    "name": "C/ BRUC, 20",
    "post_code": "08010",
    "lat": 41.3908381,
    "lng": 2.1743743,
    "district": "Eixample",
    "district_code": "02",
    "suburb": "la Dreta de l'Eixample",
    "suburb_code": "07"
  },
  {
    "station_id": "364",
    "status": "IN_SERVICE",
    "num_bikes_available": 12,
    "num_docks_available": 17,
    "name": "PG. DE GRu00c0CIA, 61",
    "post_code": "08007",
    "lat": 41.393062,
    "lng": 2.1633226,
    "district": "Eixample",
    "district_code": "02",
    "suburb": "la Dreta de l'Eixample",
    "suburb_code": "07"
  },
  {
    "station_id": "365",
    "status": "IN_SERVICE",
    "num_bikes_available": 22,
    "num_docks_available": 7,
    "name": "C/ VILADOMAT, 244",
    "post_code": "08029",
    "lat": 41.3875712,
    "lng": 2.1469336,
    "district": "Eixample",
    "district_code": "02",
    "suburb": "la Nova Esquerra de l'Eixample",
    "suburb_code": "09"
  },
  {
    "station_id": "366",
    "status": "IN_SERVICE",
    "num_bikes_available": 16,
    "num_docks_available": 2,
    "name": "LA RAMBLA, 75",
    "post_code": "08001",
    "lat": 41.3811389,
    "lng": 2.1729755,
    "district": "Ciutat Vella",
    "district_code": "01",
    "suburb": "el Raval",
    "suburb_code": "01"
  },
  {
    "station_id": "367",
    "status": "IN_SERVICE",
    "num_bikes_available": 2,
    "num_docks_available": 28,
    "name": "C/ MARQUu00c8S DE SENTMENAT, 46",
    "post_code": "08029",
    "lat": 41.384972,
    "lng": 2.1376205,
    "district": "Les Corts",
    "district_code": "04",
    "suburb": "les Corts",
    "suburb_code": "19"
  },
  {
    "station_id": "368",
    "status": "IN_SERVICE",
    "num_bikes_available": 10,
    "num_docks_available": 16,
    "name": "C/ DIPUTACIu00d3, 373",
    "post_code": "08013",
    "lat": 41.3968391,
    "lng": 2.1756598,
    "district": "Eixample",
    "district_code": "02",
    "suburb": "la Dreta de l'Eixample",
    "suburb_code": "07"
  },
  {
    "station_id": "369",
    "status": "IN_SERVICE",
    "num_bikes_available": 20,
    "num_docks_available": 5,
    "name": "C/ CONSELL DE CENT, 482",
    "post_code": "08013",
    "lat": 41.40013,
    "lng": 2.1780175,
    "district": "Eixample",
    "district_code": "02",
    "suburb": "el Fort Pienc",
    "suburb_code": "05"
  },
  {
    "station_id": "370",
    "status": "IN_SERVICE",
    "num_bikes_available": 9,
    "num_docks_available": 20,
    "name": "C/ SARDENYA, 326",
    "post_code": "08025",
    "lat": 41.4039698,
    "lng": 2.1729061,
    "district": "Eixample",
    "district_code": "02",
    "suburb": "la Sagrada Famu00edlia",
    "suburb_code": "06"
  },
  {
    "station_id": "371",
    "status": "IN_SERVICE",
    "num_bikes_available": 16,
    "num_docks_available": 13,
    "name": "C/ DELS ENAMORATS, 49",
    "post_code": "08013",
    "lat": 41.4040525,
    "lng": 2.181199,
    "district": "Eixample",
    "district_code": "02",
    "suburb": "la Sagrada Famu00edlia",
    "suburb_code": "06"
  },
  {
    "station_id": "372",
    "status": "IN_SERVICE",
    "num_bikes_available": 14,
    "num_docks_available": 9,
    "name": "C/ RIBES, 77",
    "post_code": "08013",
    "lat": 41.4001015,
    "lng": 2.1841711,
    "district": "Eixample",
    "district_code": "02",
    "suburb": "el Fort Pienc",
    "suburb_code": "05"
  },
  {
    "station_id": "373",
    "status": "IN_SERVICE",
    "num_bikes_available": 6,
    "num_docks_available": 17,
    "name": "AV. PARAL.LEL, 132",
    "post_code": "08015",
    "lat": 41.3750995,
    "lng": 2.1613897,
    "district": "Eixample",
    "district_code": "02",
    "suburb": "Sant Antoni",
    "suburb_code": "10"
  },
  {
    "station_id": "374",
    "status": "IN_SERVICE",
    "num_bikes_available": 1,
    "num_docks_available": 30,
    "name": "PG. DE GRu00c0CIA, 89",
    "post_code": "08008",
    "lat": 41.3949729,
    "lng": 2.1612814,
    "district": "Eixample",
    "district_code": "02",
    "suburb": "la Dreta de l'Eixample",
    "suburb_code": "07"
  },
  {
    "station_id": "375",
    "status": "IN_SERVICE",
    "num_bikes_available": 12,
    "num_docks_available": 25,
    "name": "WORLD TRADE CENTER",
    "post_code": "08039",
    "lat": 41.3720293,
    "lng": 2.1804468,
    "district": "Ciutat Vella",
    "district_code": "01",
    "suburb": "el Raval",
    "suburb_code": "01"
  },
  {
    "station_id": "376",
    "status": "IN_SERVICE",
    "num_bikes_available": 5,
    "num_docks_available": 34,
    "name": "WORLD  TRADE CENTER",
    "post_code": "08039",
    "lat": 41.3718728,
    "lng": 2.180302,
    "district": "Ciutat Vella",
    "district_code": "01",
    "suburb": "el Raval",
    "suburb_code": "01"
  },
  {
    "station_id": "377",
    "status": "IN_SERVICE",
    "num_bikes_available": 1,
    "num_docks_available": 27,
    "name": "PL. ICTu00cdNEO",
    "post_code": "08039",
    "lat": 41.3776292,
    "lng": 2.1836886,
    "district": "Ciutat Vella",
    "district_code": "01",
    "suburb": "el Barri Gu00f2tic",
    "suburb_code": "02"
  },
  {
    "station_id": "378",
    "status": "IN_SERVICE",
    "num_bikes_available": 15,
    "num_docks_available": 5,
    "name": "PL. JOAQUIM XIRAU I PALAU, 1",
    "post_code": "08002",
    "lat": 41.3785379,
    "lng": 2.1767427,
    "district": "Ciutat Vella",
    "district_code": "01",
    "suburb": "el Barri Gu00f2tic",
    "suburb_code": "02"
  },
  {
    "station_id": "379",
    "status": "IN_SERVICE",
    "num_bikes_available": 1,
    "num_docks_available": 17,
    "name": "AV. JOSEP TARRADELLAS, 27",
    "post_code": "08029",
    "lat": 41.3829333,
    "lng": 2.1420704,
    "district": "Sants-Montjuu00efc",
    "district_code": "03",
    "suburb": "Sants",
    "suburb_code": "18"
  },
  {
    "station_id": "380",
    "status": "IN_SERVICE",
    "num_bikes_available": 22,
    "num_docks_available": 2,
    "name": "C/ DURAN I BAS, 2",
    "post_code": "08002",
    "lat": 41.3854094,
    "lng": 2.1740155,
    "district": "Ciutat Vella",
    "district_code": "01",
    "suburb": "el Barri Gu00f2tic",
    "suburb_code": "02"
  },
  {
    "station_id": "381",
    "status": "IN_SERVICE",
    "num_bikes_available": 14,
    "num_docks_available": 21,
    "name": "C/ AGUSTu00cd DURAN I SANPERE, 10",
    "post_code": "08001",
    "lat": 41.3816139,
    "lng": 2.1677697,
    "district": "Ciutat Vella",
    "district_code": "01",
    "suburb": "el Raval",
    "suburb_code": "01"
  },
  {
    "station_id": "382",
    "status": "IN_SERVICE",
    "num_bikes_available": 21,
    "num_docks_available": 5,
    "name": "C/ LOPE DE VEGA, 79",
    "post_code": "08005",
    "lat": 41.4038902,
    "lng": 2.2041137,
    "district": "Sant Martu00ed",
    "district_code": "10",
    "suburb": "el Poblenou",
    "suburb_code": "68"
  },
  {
    "station_id": "383",
    "status": "IN_SERVICE",
    "num_bikes_available": 9,
    "num_docks_available": 14,
    "name": "C/ NUMu00c0NCIA, 2",
    "post_code": "08029",
    "lat": 41.381219,
    "lng": 2.141767,
    "district": "Sants-Montjuu00efc",
    "district_code": "03",
    "suburb": "Sants",
    "suburb_code": "18"
  },
  {
    "station_id": "384",
    "status": "IN_SERVICE",
    "num_bikes_available": 17,
    "num_docks_available": 7,
    "name": "C/ VILAMARu00cd, 85",
    "post_code": "08015",
    "lat": 41.3807072,
    "lng": 2.1468381,
    "district": "Eixample",
    "district_code": "02",
    "suburb": "la Nova Esquerra de l'Eixample",
    "suburb_code": "09"
  },
  {
    "station_id": "385",
    "status": "EMPTY",
    "num_bikes_available": 0,
    "num_docks_available": 28,
    "name": "C/ CASANOVA, 119",
    "post_code": "08036",
    "lat": 41.387888,
    "lng": 2.1552902,
    "district": "Eixample",
    "district_code": "02",
    "suburb": "l'Antiga Esquerra de l'Eixample",
    "suburb_code": "08"
  },
  {
    "station_id": "386",
    "status": "IN_SERVICE",
    "num_bikes_available": 10,
    "num_docks_available": 6,
    "name": "AV. PARAL.LEL 164",
    "post_code": "08015",
    "lat": 41.3751866,
    "lng": 2.1568773,
    "district": "Eixample",
    "district_code": "02",
    "suburb": "Sant Antoni",
    "suburb_code": "10"
  },
  {
    "station_id": "387",
    "status": "IN_SERVICE",
    "num_bikes_available": 6,
    "num_docks_available": 25,
    "name": "C/ Nu00c0POLS, 125",
    "post_code": "08013",
    "lat": 41.3957813,
    "lng": 2.1787074,
    "district": "Eixample",
    "district_code": "02",
    "suburb": "el Fort Pienc",
    "suburb_code": "05"
  },
  {
    "station_id": "388",
    "status": "IN_SERVICE",
    "num_bikes_available": 21,
    "num_docks_available": 11,
    "name": "C/ RIERA ALTA, 6",
    "post_code": "08001",
    "lat": 41.3806411,
    "lng": 2.1671611,
    "district": "Ciutat Vella",
    "district_code": "01",
    "suburb": "el Raval",
    "suburb_code": "01"
  },
  {
    "station_id": "389",
    "status": "IN_SERVICE",
    "num_bikes_available": 12,
    "num_docks_available": 15,
    "name": "RECINTE PARC DE LA CIUTADELLA",
    "post_code": "08003",
    "lat": 41.3873901,
    "lng": 2.1875446,
    "district": "Ciutat Vella",
    "district_code": "01",
    "suburb": "Sant Pere, Santa Caterina i la Ribera",
    "suburb_code": "04"
  },
  {
    "station_id": "390",
    "status": "IN_SERVICE",
    "num_bikes_available": 18,
    "num_docks_available": 3,
    "name": "C/ COMERu00c7, 36",
    "post_code": "08003",
    "lat": 41.3869612,
    "lng": 2.1820169,
    "district": "Ciutat Vella",
    "district_code": "01",
    "suburb": "Sant Pere, Santa Caterina i la Ribera",
    "suburb_code": "04"
  },
  {
    "station_id": "391",
    "status": "IN_SERVICE",
    "num_bikes_available": 13,
    "num_docks_available": 12,
    "name": "C/ GRAN DE LA SAGRERA, 74",
    "post_code": "08027",
    "lat": 41.4230551,
    "lng": 2.1913753,
    "district": "Sant Andreu",
    "district_code": "09",
    "suburb": "la Sagrera",
    "suburb_code": "61"
  },
  {
    "station_id": "392",
    "status": "IN_SERVICE",
    "num_bikes_available": 5,
    "num_docks_available": 13,
    "name": "C/ RAMON TURRu00d3, 4",
    "post_code": "08005",
    "lat": 41.3905303,
    "lng": 2.1906339,
    "district": "Sant Martu00ed",
    "district_code": "10",
    "suburb": "la Vila Olu00edmpica del Poblenou",
    "suburb_code": "67"
  },
  {
    "station_id": "393",
    "status": "IN_SERVICE",
    "num_bikes_available": 11,
    "num_docks_available": 19,
    "name": "C/ LLACUNA, 86",
    "post_code": "08005",
    "lat": 41.4022657,
    "lng": 2.1976297,
    "district": "Sant Martu00ed",
    "district_code": "10",
    "suburb": "el Poblenou",
    "suburb_code": "68"
  },
  {
    "station_id": "394",
    "status": "IN_SERVICE",
    "num_bikes_available": 4,
    "num_docks_available": 21,
    "name": "C/ DIPUTACIu00d3, 226",
    "post_code": "08007",
    "lat": 41.3873057,
    "lng": 2.1631263,
    "district": "Eixample",
    "district_code": "02",
    "suburb": "l'Antiga Esquerra de l'Eixample",
    "suburb_code": "08"
  },
  {
    "station_id": "395",
    "status": "IN_SERVICE",
    "num_bikes_available": 1,
    "num_docks_available": 28,
    "name": "PL. CATALUNYA, 22",
    "post_code": "08002",
    "lat": 41.3860607,
    "lng": 2.1702467,
    "district": "Eixample",
    "district_code": "02",
    "suburb": "la Dreta de l'Eixample",
    "suburb_code": "07"
  },
  {
    "station_id": "396",
    "status": "IN_SERVICE",
    "num_bikes_available": 2,
    "num_docks_available": 29,
    "name": "C/ JOAN MIRu00d3, 2-12",
    "post_code": "08005",
    "lat": 41.3890253,
    "lng": 2.1968267,
    "district": "Sant Martu00ed",
    "district_code": "10",
    "suburb": "la Vila Olu00edmpica del Poblenou",
    "suburb_code": "67"
  },
  {
    "station_id": "397",
    "status": "IN_SERVICE",
    "num_bikes_available": 1,
    "num_docks_available": 26,
    "name": "AV. LITORAL (PG MARu00cdTIM DEL PORT OLu00cdMPI",
    "post_code": "08005",
    "lat": 41.3889129,
    "lng": 2.1993105,
    "district": "Sant Martu00ed",
    "district_code": "10",
    "suburb": "la Vila Olu00edmpica del Poblenou",
    "suburb_code": "67"
  },
  {
    "station_id": "398",
    "status": "IN_SERVICE",
    "num_bikes_available": 25,
    "num_docks_available": 6,
    "name": "PG. MARu00cdTIM DE LA BARCELONETA/ANDREA Du00d2",
    "post_code": "08003",
    "lat": 41.380955,
    "lng": 2.1934636,
    "district": "Ciutat Vella",
    "district_code": "01",
    "suburb": "la Barceloneta",
    "suburb_code": "03"
  },
  {
    "station_id": "399",
    "status": "FULL",
    "num_bikes_available": 25,
    "num_docks_available": 0,
    "name": "C/ PAVIA, 3",
    "post_code": "08028",
    "lat": 41.3734706,
    "lng": 2.1332694,
    "district": "Sants-Montjuu00efc",
    "district_code": "03",
    "suburb": "Sants",
    "suburb_code": "18"
  },
  {
    "station_id": "400",
    "status": "IN_SERVICE",
    "num_bikes_available": 4,
    "num_docks_available": 37,
    "name": "MOLL ORIENTAL",
    "post_code": "08039",
    "lat": 41.3694508,
    "lng": 2.1879597,
    "district": "Ciutat Vella",
    "district_code": "01",
    "suburb": "la Barceloneta",
    "suburb_code": "03"
  },
  {
    "station_id": "401",
    "status": "IN_SERVICE",
    "num_bikes_available": 13,
    "num_docks_available": 6,
    "name": "PLA DE PALAU",
    "post_code": "08002",
    "lat": 41.382418,
    "lng": 2.183723,
    "district": "Ciutat Vella",
    "district_code": "01",
    "suburb": "Sant Pere, Santa Caterina i la Ribera",
    "suburb_code": "04"
  },
  {
    "station_id": "402",
    "status": "IN_SERVICE",
    "num_bikes_available": 9,
    "num_docks_available": 22,
    "name": "PG. DE COLOM (VIA LAIETANA)",
    "post_code": "08002",
    "lat": 41.380628,
    "lng": 2.1821917,
    "district": "Ciutat Vella",
    "district_code": "01",
    "suburb": "el Barri Gu00f2tic",
    "suburb_code": "02"
  },
  {
    "station_id": "403",
    "status": "IN_SERVICE",
    "num_bikes_available": 1,
    "num_docks_available": 20,
    "name": "C/ VALLESPIR, 49",
    "post_code": "08014",
    "lat": 41.3796421,
    "lng": 2.1368202,
    "district": "Sants-Montjuu00efc",
    "district_code": "03",
    "suburb": "Sants",
    "suburb_code": "18"
  },
  {
    "station_id": "404",
    "status": "IN_SERVICE",
    "num_bikes_available": 18,
    "num_docks_available": 10,
    "name": "C/ JUAN GRIS, 28",
    "post_code": "08014",
    "lat": 41.3653426,
    "lng": 2.1331357,
    "district": "Sants-Montjuu00efc",
    "district_code": "03",
    "suburb": "la Bordeta",
    "suburb_code": "16"
  },
  {
    "station_id": "405",
    "status": "IN_SERVICE",
    "num_bikes_available": 5,
    "num_docks_available": 20,
    "name": "C/ COMTE BORRELL, 198",
    "post_code": "08029",
    "lat": 41.3854003,
    "lng": 2.1521802,
    "district": "Eixample",
    "district_code": "02",
    "suburb": "la Nova Esquerra de l'Eixample",
    "suburb_code": "09"
  },
  {
    "station_id": "406",
    "status": "EMPTY",
    "num_bikes_available": 0,
    "num_docks_available": 32,
    "name": "GRAN VIA DE LES CORTS CATALANES, 592",
    "post_code": "08007",
    "lat": 41.3863747,
    "lng": 2.1646697,
    "district": "Eixample",
    "district_code": "02",
    "suburb": "la Dreta de l'Eixample",
    "suburb_code": "07"
  },
  {
    "station_id": "408",
    "status": "IN_SERVICE",
    "num_bikes_available": 22,
    "num_docks_available": 16,
    "name": "C/ RAMON TRIAS FARGAS, 23",
    "post_code": "08005",
    "lat": 41.3889972,
    "lng": 2.1923283,
    "district": "Sant Martu00ed",
    "district_code": "10",
    "suburb": "la Vila Olu00edmpica del Poblenou",
    "suburb_code": "67"
  },
  {
    "station_id": "409",
    "status": "IN_SERVICE",
    "num_bikes_available": 19,
    "num_docks_available": 5,
    "name": "C/ JOAN D'u00c0USTRIA, 31B",
    "post_code": "08005",
    "lat": 41.392384,
    "lng": 2.1925059,
    "district": "Sant Martu00ed",
    "district_code": "10",
    "suburb": "la Vila Olu00edmpica del Poblenou",
    "suburb_code": "67"
  },
  {
    "station_id": "410",
    "status": "IN_SERVICE",
    "num_bikes_available": 15,
    "num_docks_available": 19,
    "name": "PG.DE COLOM (LES RAMBLES)",
    "post_code": "08039",
    "lat": 41.376433,
    "lng": 2.17871,
    "district": "Ciutat Vella",
    "district_code": "01",
    "suburb": "el Barri Gu00f2tic",
    "suburb_code": "02"
  },
  {
    "station_id": "411",
    "status": "IN_SERVICE",
    "num_bikes_available": 7,
    "num_docks_available": 16,
    "name": "C/ JOSEP PLA, 67",
    "post_code": "08019",
    "lat": 41.411381,
    "lng": 2.2122054,
    "district": "Sant Martu00ed",
    "district_code": "10",
    "suburb": "Diagonal Mar i el Front Maru00edtim del Poblenou",
    "suburb_code": "69"
  },
  {
    "station_id": "412",
    "status": "EMPTY",
    "num_bikes_available": 0,
    "num_docks_available": 24,
    "name": "PL. URQUINAONA, 3",
    "post_code": "08010",
    "lat": 41.3893094,
    "lng": 2.1727457,
    "district": "Eixample",
    "district_code": "02",
    "suburb": "la Dreta de l'Eixample",
    "suburb_code": "07"
  },
  {
    "station_id": "413",
    "status": "EMPTY",
    "num_bikes_available": 0,
    "num_docks_available": 28,
    "name": "C/ BRUC, 66",
    "post_code": "08009",
    "lat": 41.393489,
    "lng": 2.1707419,
    "district": "Eixample",
    "district_code": "02",
    "suburb": "la Dreta de l'Eixample",
    "suburb_code": "07"
  },
  {
    "station_id": "414",
    "status": "IN_SERVICE",
    "num_bikes_available": 1,
    "num_docks_available": 30,
    "name": "C/ CASP, 67",
    "post_code": "08010",
    "lat": 41.3937234,
    "lng": 2.1764275,
    "district": "Eixample",
    "district_code": "02",
    "suburb": "la Dreta de l'Eixample",
    "suburb_code": "07"
  },
  {
    "station_id": "415",
    "status": "IN_SERVICE",
    "num_bikes_available": 16,
    "num_docks_available": 5,
    "name": "RAMBLA DEL RAVAL, 13",
    "post_code": "08001",
    "lat": 41.3793558,
    "lng": 2.1689592,
    "district": "Ciutat Vella",
    "district_code": "01",
    "suburb": "el Raval",
    "suburb_code": "01"
  },
  {
    "station_id": "416",
    "status": "IN_SERVICE",
    "num_bikes_available": 14,
    "num_docks_available": 12,
    "name": "RAMBLA DEL RAVAL, 20",
    "post_code": "08001",
    "lat": 41.3781065,
    "lng": 2.1696744,
    "district": "Ciutat Vella",
    "district_code": "01",
    "suburb": "el Raval",
    "suburb_code": "01"
  },
  {
    "station_id": "417",
    "status": "IN_SERVICE",
    "num_bikes_available": 7,
    "num_docks_available": 25,
    "name": "C/ VILLAR, 2",
    "post_code": "08041",
    "lat": 41.4164824,
    "lng": 2.1801094,
    "district": "Horta-Guinardu00f3",
    "district_code": "07",
    "suburb": "el Guinardu00f3",
    "suburb_code": "35"
  },
  {
    "station_id": "418",
    "status": "IN_SERVICE",
    "num_bikes_available": 13,
    "num_docks_available": 10,
    "name": "PG. DE LLUu00edS COMPANYS (ARC DE TRIOMF)",
    "post_code": "08018",
    "lat": 41.391062,
    "lng": 2.1801142,
    "district": "Ciutat Vella",
    "district_code": "01",
    "suburb": "Sant Pere, Santa Caterina i la Ribera",
    "suburb_code": "04"
  },
  {
    "station_id": "419",
    "status": "IN_SERVICE",
    "num_bikes_available": 10,
    "num_docks_available": 22,
    "name": "PG. DE LLUIS COMPAYNS (ARC DE TRIOMF)",
    "post_code": "08018",
    "lat": 41.391313,
    "lng": 2.1808391,
    "district": "Ciutat Vella",
    "district_code": "01",
    "suburb": "Sant Pere, Santa Caterina i la Ribera",
    "suburb_code": "04"
  },
  {
    "station_id": "420",
    "status": "IN_SERVICE",
    "num_bikes_available": 1,
    "num_docks_available": 25,
    "name": "GRAN VIA DE LES CORTS CATALANES, 368",
    "post_code": "08010",
    "lat": 41.3743329,
    "lng": 2.1479385,
    "district": "Sants-Montjuu00efc",
    "district_code": "03",
    "suburb": "Hostafrancs",
    "suburb_code": "15"
  },
  {
    "station_id": "421",
    "status": "IN_SERVICE",
    "num_bikes_available": 2,
    "num_docks_available": 20,
    "name": "C/ VALLESPIR, 13",
    "post_code": "08014",
    "lat": 41.378118,
    "lng": 2.1378667,
    "district": "Sants-Montjuu00efc",
    "district_code": "03",
    "suburb": "Sants",
    "suburb_code": "18"
  },
  {
    "station_id": "422",
    "status": "IN_SERVICE",
    "num_bikes_available": 3,
    "num_docks_available": 23,
    "name": "C/ JORDI GIRONA, 29",
    "post_code": "08034",
    "lat": 41.3881175,
    "lng": 2.1154135,
    "district": "Les Corts",
    "district_code": "04",
    "suburb": "Pedralbes",
    "suburb_code": "21"
  },
  {
    "station_id": "423",
    "status": "IN_SERVICE",
    "num_bikes_available": 15,
    "num_docks_available": 17,
    "name": "C/ HONDURAS, 32-34",
    "post_code": "08027",
    "lat": 41.4202459,
    "lng": 2.1894852,
    "district": "Sant Andreu",
    "district_code": "09",
    "suburb": "la Sagrera",
    "suburb_code": "61"
  },
  {
    "station_id": "424",
    "status": "IN_SERVICE",
    "num_bikes_available": 1,
    "num_docks_available": 24,
    "name": "PG. MARu00cdTIM DE LA BARCELONETA",
    "post_code": "08003",
    "lat": 41.3795862,
    "lng": 2.1925198,
    "district": "Ciutat Vella",
    "district_code": "01",
    "suburb": "la Barceloneta",
    "suburb_code": "03"
  },
  {
    "station_id": "425",
    "status": "IN_SERVICE",
    "num_bikes_available": 22,
    "num_docks_available": 2,
    "name": "C/ DE CERVELLu00d3, 5",
    "post_code": "08001",
    "lat": 41.3765618,
    "lng": 2.1748621,
    "district": "Ciutat Vella",
    "district_code": "01",
    "suburb": "el Raval",
    "suburb_code": "01"
  },
  {
    "station_id": "426",
    "status": "IN_SERVICE",
    "num_bikes_available": 12,
    "num_docks_available": 18,
    "name": "C/ DE RIBES, 59 B",
    "post_code": "08013",
    "lat": 41.39828,
    "lng": 2.1830315,
    "district": "Eixample",
    "district_code": "02",
    "suburb": "el Fort Pienc",
    "suburb_code": "05"
  },
  {
    "station_id": "427",
    "status": "IN_SERVICE",
    "num_bikes_available": 17,
    "num_docks_available": 6,
    "name": "C/ DE SANT PAU, 119/ RONDA SANT PAU",
    "post_code": "08001",
    "lat": 41.3754047,
    "lng": 2.1680021,
    "district": "Ciutat Vella",
    "district_code": "01",
    "suburb": "el Raval",
    "suburb_code": "01"
  },
  {
    "station_id": "428",
    "status": "IN_SERVICE",
    "num_bikes_available": 10,
    "num_docks_available": 17,
    "name": "C/ PUJADES, 103",
    "post_code": "08005",
    "lat": 41.3983902,
    "lng": 2.1960799,
    "district": "Sant Martu00ed",
    "district_code": "10",
    "suburb": "el Poblenou",
    "suburb_code": "68"
  },
  {
    "station_id": "429",
    "status": "IN_SERVICE",
    "num_bikes_available": 6,
    "num_docks_available": 22,
    "name": "C/ GRAN CAPITu00c0, 9",
    "post_code": "08034",
    "lat": 41.3881262,
    "lng": 2.1091535,
    "district": "Les Corts",
    "district_code": "04",
    "suburb": "Pedralbes",
    "suburb_code": "21"
  },
  {
    "station_id": "430",
    "status": "IN_SERVICE",
    "num_bikes_available": 1,
    "num_docks_available": 26,
    "name": "La Salle - C/ ALFAMBRA, 2 | AV. DIAGONAL",
    "post_code": "08034",
    "lat": 41.385641,
    "lng": 2.113096,
    "district": "Les Corts",
    "district_code": "04",
    "suburb": "Pedralbes",
    "suburb_code": "21"
  },
  {
    "station_id": "431",
    "status": "IN_SERVICE",
    "num_bikes_available": 10,
    "num_docks_available": 10,
    "name": "AV. JOAN XXIII, 17",
    "post_code": "08028",
    "lat": 41.383467,
    "lng": 2.122175,
    "district": "Les Corts",
    "district_code": "04",
    "suburb": "la Maternitat i Sant Ramon",
    "suburb_code": "20"
  },
  {
    "station_id": "432",
    "status": "IN_SERVICE",
    "num_bikes_available": 13,
    "num_docks_available": 13,
    "name": "C/ MARTu00cd I FRANQUu00c8S, 1",
    "post_code": "08028",
    "lat": 41.3847061,
    "lng": 2.1170751,
    "district": "Les Corts",
    "district_code": "04",
    "suburb": "la Maternitat i Sant Ramon",
    "suburb_code": "20"
  },
  {
    "station_id": "433",
    "status": "IN_SERVICE",
    "num_bikes_available": 6,
    "num_docks_available": 34,
    "name": "La Salle-C/ J. MAYNARD KEYNES, 2|AV. DGNAL.",
    "post_code": "08034",
    "lat": 41.3862258,
    "lng": 2.1168609,
    "district": "Les Corts",
    "district_code": "04",
    "suburb": "Pedralbes",
    "suburb_code": "21"
  },
  {
    "station_id": "434",
    "status": "IN_SERVICE",
    "num_bikes_available": 5,
    "num_docks_available": 22,
    "name": "C/ ROGER, 24",
    "post_code": "08028",
    "lat": 41.3767538,
    "lng": 2.1269152,
    "district": "Sants-Montjuu00efc",
    "district_code": "03",
    "suburb": "Sants - Badal",
    "suburb_code": "17"
  },
  {
    "station_id": "435",
    "status": "IN_SERVICE",
    "num_bikes_available": 4,
    "num_docks_available": 22,
    "name": "AV. DOCTOR MARAu00d1ON, 25 | C/ PAU GARGALLO",
    "post_code": "08028",
    "lat": 41.383585,
    "lng": 2.112186,
    "district": "Les Corts",
    "district_code": "04",
    "suburb": "la Maternitat i Sant Ramon",
    "suburb_code": "20"
  },
  {
    "station_id": "436",
    "status": "IN_SERVICE",
    "num_bikes_available": 5,
    "num_docks_available": 14,
    "name": "PG. ZONA FRANCA, 54",
    "post_code": "08038",
    "lat": 41.3545425,
    "lng": 2.1433038,
    "district": "Sants-Montjuu00efc",
    "district_code": "03",
    "suburb": "la Marina de Port",
    "suburb_code": "13"
  },
  {
    "station_id": "437",
    "status": "IN_SERVICE",
    "num_bikes_available": 10,
    "num_docks_available": 26,
    "name": "PG. ZONA FRANCA, 9",
    "post_code": "08038",
    "lat": 41.3513237,
    "lng": 2.1450958,
    "district": "Sants-Montjuu00efc",
    "district_code": "03",
    "suburb": "la Marina del Prat Vermell",
    "suburb_code": "12"
  },
  {
    "station_id": "438",
    "status": "IN_SERVICE",
    "num_bikes_available": 4,
    "num_docks_available": 21,
    "name": "C/ Nu00c0POLS, 183",
    "post_code": "08013",
    "lat": 41.3981669,
    "lng": 2.1754896,
    "district": "Eixample",
    "district_code": "02",
    "suburb": "la Dreta de l'Eixample",
    "suburb_code": "07"
  },
  {
    "station_id": "439",
    "status": "FULL",
    "num_bikes_available": 16,
    "num_docks_available": 0,
    "name": "RBLA. BADAL, 73 | C/ CONSTITUCIu00d3",
    "post_code": "08014",
    "lat": 41.3685394,
    "lng": 2.1328403,
    "district": "Sants-Montjuu00efc",
    "district_code": "03",
    "suburb": "la Bordeta",
    "suburb_code": "16"
  },
  {
    "station_id": "440",
    "status": "IN_SERVICE",
    "num_bikes_available": 16,
    "num_docks_available": 5,
    "name": "C/ SELVA DE MAR, 230",
    "post_code": "08020",
    "lat": 41.417694,
    "lng": 2.1976864,
    "district": "Sant Martu00ed",
    "district_code": "10",
    "suburb": "Sant Martu00ed de Provenu00e7als",
    "suburb_code": "72"
  },
  {
    "station_id": "441",
    "status": "IN_SERVICE",
    "num_bikes_available": 11,
    "num_docks_available": 5,
    "name": "C/ WATT, 2",
    "post_code": "08014",
    "lat": 41.3754426,
    "lng": 2.1398409,
    "district": "Sants-Montjuu00efc",
    "district_code": "03",
    "suburb": "Sants",
    "suburb_code": "18"
  },
  {
    "station_id": "442",
    "status": "FULL",
    "num_bikes_available": 17,
    "num_docks_available": 0,
    "name": "C/ MINERIA, 30",
    "post_code": "08038",
    "lat": 41.3649272,
    "lng": 2.138599,
    "district": "Sants-Montjuu00efc",
    "district_code": "03",
    "suburb": "la Marina de Port",
    "suburb_code": "13"
  },
  {
    "station_id": "443",
    "status": "IN_SERVICE",
    "num_bikes_available": 1,
    "num_docks_available": 27,
    "name": "C/ CASANOVA, 139",
    "post_code": "08036",
    "lat": 41.3887127,
    "lng": 2.1542277,
    "district": "Eixample",
    "district_code": "02",
    "suburb": "l'Antiga Esquerra de l'Eixample",
    "suburb_code": "08"
  },
  {
    "station_id": "444",
    "status": "IN_SERVICE",
    "num_bikes_available": 5,
    "num_docks_available": 22,
    "name": "C/ LLEIDA, 40",
    "post_code": "08004",
    "lat": 41.3717304,
    "lng": 2.1554047,
    "district": "Sants-Montjuu00efc",
    "district_code": "03",
    "suburb": "el Poble-sec",
    "suburb_code": "11"
  },
  {
    "station_id": "445",
    "status": "IN_SERVICE",
    "num_bikes_available": 11,
    "num_docks_available": 12,
    "name": "C/ VILAMARu00cd, 2",
    "post_code": "08015",
    "lat": 41.3755016,
    "lng": 2.154004,
    "district": "Eixample",
    "district_code": "02",
    "suburb": "Sant Antoni",
    "suburb_code": "10"
  },
  {
    "station_id": "446",
    "status": "IN_SERVICE",
    "num_bikes_available": 6,
    "num_docks_available": 7,
    "name": "PG. JOAN DE BORBu00d3, 42",
    "post_code": "08003",
    "lat": 41.3779974,
    "lng": 2.1884228,
    "district": "Ciutat Vella",
    "district_code": "01",
    "suburb": "la Barceloneta",
    "suburb_code": "03"
  },
  {
    "station_id": "447",
    "status": "IN_SERVICE",
    "num_bikes_available": 15,
    "num_docks_available": 10,
    "name": "C/ ALMOGu00c0VERS, 63",
    "post_code": "08018",
    "lat": 41.3943033,
    "lng": 2.1860256,
    "district": "Eixample",
    "district_code": "02",
    "suburb": "el Fort Pienc",
    "suburb_code": "05"
  },
  {
    "station_id": "448",
    "status": "IN_SERVICE",
    "num_bikes_available": 16,
    "num_docks_available": 5,
    "name": "C/ RAMu00d3N TURRu00d3, 160",
    "post_code": "08005",
    "lat": 41.3972809,
    "lng": 2.1997869,
    "district": "Sant Martu00ed",
    "district_code": "10",
    "suburb": "el Poblenou",
    "suburb_code": "68"
  },
  {
    "station_id": "449",
    "status": "IN_SERVICE",
    "num_bikes_available": 3,
    "num_docks_available": 19,
    "name": "C/ BOLIVIA, 120",
    "post_code": "08018",
    "lat": 41.4058109,
    "lng": 2.1949461,
    "district": "Sant Martu00ed",
    "district_code": "10",
    "suburb": "Provenu00e7als del Poblenou",
    "suburb_code": "71"
  },
  {
    "station_id": "450",
    "status": "IN_SERVICE",
    "num_bikes_available": 11,
    "num_docks_available": 16,
    "name": "C/ CRISTOBAL DE MOURA, 84",
    "post_code": "08019",
    "lat": 41.410712,
    "lng": 2.2061691,
    "district": "Sant Martu00ed",
    "district_code": "10",
    "suburb": "Provenu00e7als del Poblenou",
    "suburb_code": "71"
  },
  {
    "station_id": "451",
    "status": "IN_SERVICE",
    "num_bikes_available": 19,
    "num_docks_available": 3,
    "name": "C/ PALLARS, 504",
    "post_code": "08019",
    "lat": 41.4140598,
    "lng": 2.2150487,
    "district": "Sant Martu00ed",
    "district_code": "10",
    "suburb": "el Besu00f2s i el Maresme",
    "suburb_code": "70"
  },
  {
    "station_id": "452",
    "status": "IN_SERVICE",
    "num_bikes_available": 24,
    "num_docks_available": 28,
    "name": "GRAN VIA DE LES CORTS CATALANES, 1157 (D)",
    "post_code": "08020",
    "lat": 41.4194972,
    "lng": 2.20934,
    "district": "Sant Martu00ed",
    "district_code": "10",
    "suburb": "el Besu00f2s i el Maresme",
    "suburb_code": "70"
  },
  {
    "station_id": "454",
    "status": "IN_SERVICE",
    "num_bikes_available": 16,
    "num_docks_available": 6,
    "name": "C/ SARDENYA, 402",
    "post_code": "08025",
    "lat": 41.4072349,
    "lng": 2.1684799,
    "district": "Horta-Guinardu00f3",
    "district_code": "07",
    "suburb": "el Baix Guinardu00f3",
    "suburb_code": "33"
  },
  {
    "station_id": "455",
    "status": "IN_SERVICE",
    "num_bikes_available": 17,
    "num_docks_available": 4,
    "name": "C/ PROVENu00c7A, 595",
    "post_code": "08026",
    "lat": 41.4105848,
    "lng": 2.1826833,
    "district": "Sant Martu00ed",
    "district_code": "10",
    "suburb": "el Camp de l'Arpa del Clot",
    "suburb_code": "64"
  },
  {
    "station_id": "456",
    "status": "IN_SERVICE",
    "num_bikes_available": 7,
    "num_docks_available": 9,
    "name": "C/ Mu00daRCIA, 1",
    "post_code": "08026",
    "lat": 41.4143392,
    "lng": 2.1874539,
    "district": "Sant Martu00ed",
    "district_code": "10",
    "suburb": "el Clot",
    "suburb_code": "65"
  },
  {
    "station_id": "457",
    "status": "IN_SERVICE",
    "num_bikes_available": 13,
    "num_docks_available": 4,
    "name": "C/ GRANADELLA, 10-19 | C/ SAS",
    "post_code": "08030",
    "lat": 41.4383117,
    "lng": 2.2039823,
    "district": "Sant Andreu",
    "district_code": "09",
    "suburb": "el Bon Pastor",
    "suburb_code": "59"
  },
  {
    "station_id": "458",
    "status": "IN_SERVICE",
    "num_bikes_available": 14,
    "num_docks_available": 7,
    "name": "C/ TUCUMu00c1N, 21",
    "post_code": "08030",
    "lat": 41.4457962,
    "lng": 2.2010422,
    "district": "Sant Andreu",
    "district_code": "09",
    "suburb": "el Bon Pastor",
    "suburb_code": "59"
  },
  {
    "station_id": "459",
    "status": "IN_SERVICE",
    "num_bikes_available": 31,
    "num_docks_available": 4,
    "name": "PG. SANTA COLOMA, 105",
    "post_code": "08030",
    "lat": 41.4479402,
    "lng": 2.1976757,
    "district": "Sant Andreu",
    "district_code": "09",
    "suburb": "la Trinitat Vella",
    "suburb_code": "57"
  },
  {
    "station_id": "460",
    "status": "IN_SERVICE",
    "num_bikes_available": 9,
    "num_docks_available": 6,
    "name": "C/ MIREIA, 28",
    "post_code": "08033",
    "lat": 41.4513863,
    "lng": 2.1894717,
    "district": "Sant Andreu",
    "district_code": "09",
    "suburb": "la Trinitat Vella",
    "suburb_code": "57"
  },
  {
    "station_id": "461",
    "status": "IN_SERVICE",
    "num_bikes_available": 9,
    "num_docks_available": 19,
    "name": "AV. RIO DE JANEIRO, 118",
    "post_code": "08016",
    "lat": 41.442489,
    "lng": 2.185727,
    "district": "Nou Barris",
    "district_code": "08",
    "suburb": "la Prosperitat",
    "suburb_code": "52"
  },
  {
    "station_id": "462",
    "status": "IN_SERVICE",
    "num_bikes_available": 7,
    "num_docks_available": 21,
    "name": "C/ PALAMu00d3S, 33",
    "post_code": "08033",
    "lat": 41.446923,
    "lng": 2.184857,
    "district": "Nou Barris",
    "district_code": "08",
    "suburb": "la Trinitat Nova",
    "suburb_code": "53"
  },
  {
    "station_id": "463",
    "status": "IN_SERVICE",
    "num_bikes_available": 4,
    "num_docks_available": 20,
    "name": "C/ PEDROSA, 24",
    "post_code": "08033",
    "lat": 41.4490679,
    "lng": 2.1833801,
    "district": "Nou Barris",
    "district_code": "08",
    "suburb": "la Trinitat Nova",
    "suburb_code": "53"
  },
  {
    "station_id": "464",
    "status": "IN_SERVICE",
    "num_bikes_available": 7,
    "num_docks_available": 14,
    "name": "AV. RIO DE JANEIRO, 96",
    "post_code": "08016",
    "lat": 41.439692,
    "lng": 2.182335,
    "district": "Nou Barris",
    "district_code": "08",
    "suburb": "la Prosperitat",
    "suburb_code": "52"
  },
  {
    "station_id": "465",
    "status": "IN_SERVICE",
    "num_bikes_available": 1,
    "num_docks_available": 23,
    "name": "C/ ROSSELLu00d3, 261",
    "post_code": "08008",
    "lat": 41.3954094,
    "lng": 2.1599427,
    "district": "Eixample",
    "district_code": "02",
    "suburb": "la Dreta de l'Eixample",
    "suburb_code": "07"
  },
  {
    "station_id": "466",
    "status": "IN_SERVICE",
    "num_bikes_available": 21,
    "num_docks_available": 9,
    "name": "C/ PABLO IGLESIAS, 21",
    "post_code": "08016",
    "lat": 41.443387,
    "lng": 2.1813051,
    "district": "Nou Barris",
    "district_code": "08",
    "suburb": "la Prosperitat",
    "suburb_code": "52"
  },
  {
    "station_id": "467",
    "status": "IN_SERVICE",
    "num_bikes_available": 12,
    "num_docks_available": 8,
    "name": "PL. JESu00daS CARRASCO",
    "post_code": "08042",
    "lat": 41.4450463,
    "lng": 2.176726,
    "district": "Nou Barris",
    "district_code": "08",
    "suburb": "Verdun",
    "suburb_code": "51"
  },
  {
    "station_id": "468",
    "status": "IN_SERVICE",
    "num_bikes_available": 1,
    "num_docks_available": 17,
    "name": "C/ NOU BARRIS, 23",
    "post_code": "08042",
    "lat": 41.4480464,
    "lng": 2.1775154,
    "district": "Nou Barris",
    "district_code": "08",
    "suburb": "les Roquetes",
    "suburb_code": "50"
  },
  {
    "station_id": "469",
    "status": "IN_SERVICE",
    "num_bikes_available": 5,
    "num_docks_available": 12,
    "name": "C/ SANT FRANCESC XAVIER, 1",
    "post_code": "08016",
    "lat": 41.4417001,
    "lng": 2.1781553,
    "district": "Nou Barris",
    "district_code": "08",
    "suburb": "la Prosperitat",
    "suburb_code": "52"
  },
  {
    "station_id": "470",
    "status": "IN_SERVICE",
    "num_bikes_available": 5,
    "num_docks_available": 18,
    "name": "C/ Gu00d2NGORA, 23",
    "post_code": "08042",
    "lat": 41.4432762,
    "lng": 2.1746238,
    "district": "Nou Barris",
    "district_code": "08",
    "suburb": "Verdun",
    "suburb_code": "51"
  },
  {
    "station_id": "471",
    "status": "IN_SERVICE",
    "num_bikes_available": 2,
    "num_docks_available": 22,
    "name": "PG. VALLDAURA, 171",
    "post_code": "08042",
    "lat": 41.4389014,
    "lng": 2.1715576,
    "district": "Nou Barris",
    "district_code": "08",
    "suburb": "la Guineueta",
    "suburb_code": "48"
  },
  {
    "station_id": "472",
    "status": "IN_SERVICE",
    "num_bikes_available": 2,
    "num_docks_available": 22,
    "name": "VIA FAVu00c8NCIA, 186",
    "post_code": "08042",
    "lat": 41.4427374,
    "lng": 2.170393,
    "district": "Nou Barris",
    "district_code": "08",
    "suburb": "la Guineueta",
    "suburb_code": "48"
  },
  {
    "station_id": "473",
    "status": "IN_SERVICE",
    "num_bikes_available": 2,
    "num_docks_available": 26,
    "name": "PG. FABRA I PUIG, 449",
    "post_code": "08042",
    "lat": 41.4388644,
    "lng": 2.1657506,
    "district": "Nou Barris",
    "district_code": "08",
    "suburb": "la Guineueta",
    "suburb_code": "48"
  },
  {
    "station_id": "474",
    "status": "IN_SERVICE",
    "num_bikes_available": 3,
    "num_docks_available": 21,
    "name": "VIA FAVu00c8NCIA, 47",
    "post_code": "08042",
    "lat": 41.4418604,
    "lng": 2.1664224,
    "district": "Nou Barris",
    "district_code": "08",
    "suburb": "Canyelles",
    "suburb_code": "49"
  },
  {
    "station_id": "475",
    "status": "IN_SERVICE",
    "num_bikes_available": 5,
    "num_docks_available": 14,
    "name": "C/ CAMPO FLORIDO, 66",
    "post_code": "08027",
    "lat": 41.4216738,
    "lng": 2.1799878,
    "district": "Sant Andreu",
    "district_code": "09",
    "suburb": "el Congru00e9s i els Indians",
    "suburb_code": "62"
  },
  {
    "station_id": "476",
    "status": "IN_SERVICE",
    "num_bikes_available": 11,
    "num_docks_available": 5,
    "name": "C/ PERIODISTES, 9",
    "post_code": "08032",
    "lat": 41.422037,
    "lng": 2.174401,
    "district": "Horta-Guinardu00f3",
    "district_code": "07",
    "suburb": "el Guinardu00f3",
    "suburb_code": "35"
  },
  {
    "station_id": "477",
    "status": "IN_SERVICE",
    "num_bikes_available": 3,
    "num_docks_available": 23,
    "name": "C/ AMILCAR, 78",
    "post_code": "08032",
    "lat": 41.4260751,
    "lng": 2.1722534,
    "district": "Horta-Guinardu00f3",
    "district_code": "07",
    "suburb": "la Font d'en Fargues",
    "suburb_code": "36"
  },
  {
    "station_id": "478",
    "status": "IN_SERVICE",
    "num_bikes_available": 8,
    "num_docks_available": 21,
    "name": "C/ ESCULTOR LLIMONA, 7",
    "post_code": "08031",
    "lat": 41.4276076,
    "lng": 2.1697582,
    "district": "Nou Barris",
    "district_code": "08",
    "suburb": "Vilapicina i la Torre Llobeta",
    "suburb_code": "44"
  },
  {
    "station_id": "479",
    "status": "IN_SERVICE",
    "num_bikes_available": 4,
    "num_docks_available": 13,
    "name": "PG. FABRA I PUIG, 344",
    "post_code": "08031",
    "lat": 41.430623,
    "lng": 2.1671068,
    "district": "Nou Barris",
    "district_code": "08",
    "suburb": "el Turu00f3 de la Peira",
    "suburb_code": "46"
  },
  {
    "station_id": "480",
    "status": "IN_SERVICE",
    "num_bikes_available": 12,
    "num_docks_available": 15,
    "name": "PG. FABRA I PUIG, 385",
    "post_code": "08031",
    "lat": 41.4333259,
    "lng": 2.1629258,
    "district": "Horta-Guinardu00f3",
    "district_code": "07",
    "suburb": "Horta",
    "suburb_code": "43"
  },
  {
    "station_id": "481",
    "status": "IN_SERVICE",
    "num_bikes_available": 2,
    "num_docks_available": 24,
    "name": "PG. FABRA I PUIG, 411",
    "post_code": "08031",
    "lat": 41.4357978,
    "lng": 2.163872,
    "district": "Horta-Guinardu00f3",
    "district_code": "07",
    "suburb": "Horta",
    "suburb_code": "43"
  },
  {
    "station_id": "482",
    "status": "IN_SERVICE",
    "num_bikes_available": 1,
    "num_docks_available": 19,
    "name": "PG. UNIVERSAL, 29 | C/ DOCTOR LETAMENDI",
    "post_code": "08042",
    "lat": 41.4372022,
    "lng": 2.1620235,
    "district": "Horta-Guinardu00f3",
    "district_code": "07",
    "suburb": "Horta",
    "suburb_code": "43"
  },
  {
    "station_id": "483",
    "status": "IN_SERVICE",
    "num_bikes_available": 1,
    "num_docks_available": 27,
    "name": "C/ LISBOA, 1",
    "post_code": "08032",
    "lat": 41.4295617351,
    "lng": 2.1589684563,
    "district": "Horta-Guinardu00f3",
    "district_code": "07",
    "suburb": "Horta",
    "suburb_code": "43"
  },
  {
    "station_id": "484",
    "status": "EMPTY",
    "num_bikes_available": 0,
    "num_docks_available": 27,
    "name": "C/ EDUARD TODA, 33 | C/ DOCTOR LETAMENDI",
    "post_code": "08031",
    "lat": 41.4345997,
    "lng": 2.1585268,
    "district": "Horta-Guinardu00f3",
    "district_code": "07",
    "suburb": "Horta",
    "suburb_code": "43"
  },
  {
    "station_id": "485",
    "status": "IN_SERVICE",
    "num_bikes_available": 3,
    "num_docks_available": 24,
    "name": "PG. VALLDAURA, 26",
    "post_code": "08031",
    "lat": 41.4374904,
    "lng": 2.1565742,
    "district": "Horta-Guinardu00f3",
    "district_code": "07",
    "suburb": "Horta",
    "suburb_code": "43"
  },
  {
    "station_id": "486",
    "status": "IN_SERVICE",
    "num_bikes_available": 4,
    "num_docks_available": 22,
    "name": "C/ PORTO, 35 | AV. ESTATUT DE CATALUNYA",
    "post_code": "08032",
    "lat": 41.4306102,
    "lng": 2.1564551,
    "district": "Horta-Guinardu00f3",
    "district_code": "07",
    "suburb": "Horta",
    "suburb_code": "43"
  },
  {
    "station_id": "487",
    "status": "EMPTY",
    "num_bikes_available": 0,
    "num_docks_available": 26,
    "name": "C/ LISBOA, 128",
    "post_code": "08032",
    "lat": 41.4267638,
    "lng": 2.1521909,
    "district": "Horta-Guinardu00f3",
    "district_code": "07",
    "suburb": "el Carmel",
    "suburb_code": "37"
  },
  {
    "station_id": "488",
    "status": "IN_SERVICE",
    "num_bikes_available": 1,
    "num_docks_available": 25,
    "name": "AV. CAN MARCET, 36",
    "post_code": "08035",
    "lat": 41.4347859,
    "lng": 2.147904,
    "district": "Horta-Guinardu00f3",
    "district_code": "07",
    "suburb": "la Vall d'Hebron",
    "suburb_code": "41"
  },
  {
    "station_id": "489",
    "status": "IN_SERVICE",
    "num_bikes_available": 11,
    "num_docks_available": 16,
    "name": "C/ JORGE MANRIQUE, 15",
    "post_code": "08035",
    "lat": 41.4312335,
    "lng": 2.1499103,
    "district": "Horta-Guinardu00f3",
    "district_code": "07",
    "suburb": "la Vall d'Hebron",
    "suburb_code": "41"
  },
  {
    "station_id": "490",
    "status": "IN_SERVICE",
    "num_bikes_available": 2,
    "num_docks_available": 47,
    "name": "PG. VALL D'HEBRu00d3N, 168",
    "post_code": "08035",
    "lat": 41.4280668,
    "lng": 2.1443777,
    "district": "Horta-Guinardu00f3",
    "district_code": "07",
    "suburb": "la Vall d'Hebron",
    "suburb_code": "41"
  },
  {
    "station_id": "491",
    "status": "EMPTY",
    "num_bikes_available": 0,
    "num_docks_available": 26,
    "name": "C/ PARE MARIANA, 24",
    "post_code": "08035",
    "lat": 41.4306689,
    "lng": 2.1456449,
    "district": "Horta-Guinardu00f3",
    "district_code": "07",
    "suburb": "la Vall d'Hebron",
    "suburb_code": "41"
  },
  {
    "station_id": "492",
    "status": "IN_SERVICE",
    "num_bikes_available": 10,
    "num_docks_available": 11,
    "name": "PL. TETUAN",
    "post_code": "08010",
    "lat": 41.3943454,
    "lng": 2.1751709,
    "district": "Eixample",
    "district_code": "02",
    "suburb": "la Dreta de l'Eixample",
    "suburb_code": "07"
  },
  {
    "station_id": "493",
    "status": "IN_SERVICE",
    "num_bikes_available": 5,
    "num_docks_available": 19,
    "name": "PG. VALL D'HEBRu00d3N, 80",
    "post_code": "08023",
    "lat": 41.419965,
    "lng": 2.1401823,
    "district": "Gru00e0cia",
    "district_code": "06",
    "suburb": "Vallcarca i els Penitents",
    "suburb_code": "28"
  },
  {
    "station_id": "494",
    "status": "EMPTY",
    "num_bikes_available": 0,
    "num_docks_available": 20,
    "name": "RBLA. CATALUNYA, 33 - C/ DIPUTACIu00d3",
    "post_code": "08007",
    "lat": 41.3896967,
    "lng": 2.1652199,
    "district": "Eixample",
    "district_code": "02",
    "suburb": "la Dreta de l'Eixample",
    "suburb_code": "07"
  },
  {
    "station_id": "495",
    "status": "IN_SERVICE",
    "num_bikes_available": 9,
    "num_docks_available": 9,
    "name": "C/ DIPUTACIu00d3, 22",
    "post_code": "08015",
    "lat": 41.377846,
    "lng": 2.150523,
    "district": "Eixample",
    "district_code": "02",
    "suburb": "la Nova Esquerra de l'Eixample",
    "suburb_code": "09"
  },
  {
    "station_id": "496",
    "status": "IN_SERVICE",
    "num_bikes_available": 9,
    "num_docks_available": 4,
    "name": "C/ PROVENu00c7A,  445",
    "post_code": "08025",
    "lat": 41.4048623,
    "lng": 2.174799,
    "district": "Eixample",
    "district_code": "02",
    "suburb": "la Sagrada Famu00edlia",
    "suburb_code": "06"
  },
  {
    "station_id": "497",
    "status": "EMPTY",
    "num_bikes_available": 0,
    "num_docks_available": 24,
    "name": "PTGE. MALUQUER, 16",
    "post_code": "08022",
    "lat": 41.4095489,
    "lng": 2.1360313,
    "district": "Sarriu00e0-Sant Gervasi",
    "district_code": "05",
    "suburb": "Sant Gervasi - la Bonanova",
    "suburb_code": "25"
  },
  {
    "station_id": "498",
    "status": "IN_SERVICE",
    "num_bikes_available": 4,
    "num_docks_available": 20,
    "name": "C/ ESTEVE TERRADAS, 42",
    "post_code": "08023",
    "lat": 41.4144967,
    "lng": 2.1402433,
    "district": "Gru00e0cia",
    "district_code": "06",
    "suburb": "Vallcarca i els Penitents",
    "suburb_code": "28"
  },
  {
    "station_id": "499",
    "status": "IN_SERVICE",
    "num_bikes_available": 4,
    "num_docks_available": 22,
    "name": "AV. VALLCARCA, 196",
    "post_code": "08023",
    "lat": 41.4160558,
    "lng": 2.1421504,
    "district": "Gru00e0cia",
    "district_code": "06",
    "suburb": "Vallcarca i els Penitents",
    "suburb_code": "28"
  },
  {
    "station_id": "500",
    "status": "IN_SERVICE",
    "num_bikes_available": 7,
    "num_docks_available": 14,
    "name": "C/ ARGENTERA, 23",
    "post_code": "08023",
    "lat": 41.4117633,
    "lng": 2.1453424,
    "district": "Gru00e0cia",
    "district_code": "06",
    "suburb": "Vallcarca i els Penitents",
    "suburb_code": "28"
  },
  {
    "station_id": "501",
    "status": "IN_SERVICE",
    "num_bikes_available": 3,
    "num_docks_available": 13,
    "name": "C/ ELISA, 1",
    "post_code": "08023",
    "lat": 41.4052698,
    "lng": 2.1420204,
    "district": "Sarriu00e0-Sant Gervasi",
    "district_code": "05",
    "suburb": "el Putxet i el Farru00f3",
    "suburb_code": "27"
  },
  {
    "station_id": "502",
    "status": "IN_SERVICE",
    "num_bikes_available": 12,
    "num_docks_available": 3,
    "name": "AV. VALLCARCA, 11",
    "post_code": "08023",
    "lat": 41.4074444,
    "lng": 2.1492066,
    "district": "Gru00e0cia",
    "district_code": "06",
    "suburb": "Vallcarca i els Penitents",
    "suburb_code": "28"
  },
  {
    "station_id": "503",
    "status": "IN_SERVICE",
    "num_bikes_available": 6,
    "num_docks_available": 20,
    "name": "C/ MAIGNON, 31-41",
    "post_code": "08024",
    "lat": 41.4095926,
    "lng": 2.1524953,
    "district": "Gru00e0cia",
    "district_code": "06",
    "suburb": "la Salut",
    "suburb_code": "30"
  },
  {
    "station_id": "504",
    "status": "IN_SERVICE",
    "num_bikes_available": 2,
    "num_docks_available": 25,
    "name": "C/ MASSENS, 76",
    "post_code": "08024",
    "lat": 41.4092333,
    "lng": 2.1557747,
    "district": "Gru00e0cia",
    "district_code": "06",
    "suburb": "la Vila de Gru00e0cia",
    "suburb_code": "31"
  },
  {
    "station_id": "505",
    "status": "IN_SERVICE",
    "num_bikes_available": 12,
    "num_docks_available": 14,
    "name": "C/ CAMu00c8LIES, 78",
    "post_code": "08024",
    "lat": 41.4145614,
    "lng": 2.1658677,
    "district": "Horta-Guinardu00f3",
    "district_code": "07",
    "suburb": "el Baix Guinardu00f3",
    "suburb_code": "33"
  },
  {
    "station_id": "506",
    "status": "IN_SERVICE",
    "num_bikes_available": 10,
    "num_docks_available": 1,
    "name": "C/ GARRIGA I ROCA, 2",
    "post_code": "08041",
    "lat": 41.4191957,
    "lng": 2.1718497,
    "district": "Horta-Guinardu00f3",
    "district_code": "07",
    "suburb": "el Guinardu00f3",
    "suburb_code": "35"
  },
  {
    "station_id": "507",
    "status": "IN_SERVICE",
    "num_bikes_available": 15,
    "num_docks_available": 8,
    "name": "C/ SARDENYA, 494",
    "post_code": "08024",
    "lat": 41.4107641,
    "lng": 2.1640965,
    "district": "Horta-Guinardu00f3",
    "district_code": "07",
    "suburb": "el Baix Guinardu00f3",
    "suburb_code": "33"
  },
  {
    "station_id": "508",
    "status": "FULL",
    "num_bikes_available": 26,
    "num_docks_available": 0,
    "name": "C/ SARDENYA, 465",
    "post_code": "08025",
    "lat": 41.4090922,
    "lng": 2.1656378,
    "district": "Gru00e0cia",
    "district_code": "06",
    "suburb": "el Camp d'en Grassot i Gru00e0cia Nova",
    "suburb_code": "32"
  },
  {
    "station_id": "509",
    "status": "IN_SERVICE",
    "num_bikes_available": 2,
    "num_docks_available": 22,
    "name": "C/ TORRENT DE L'OLLA, 11",
    "post_code": "08012",
    "lat": 41.3989713,
    "lng": 2.1606736,
    "district": "Gru00e0cia",
    "district_code": "06",
    "suburb": "la Vila de Gru00e0cia",
    "suburb_code": "31"
  },
  {
    "station_id": "510",
    "status": "IN_SERVICE",
    "num_bikes_available": 2,
    "num_docks_available": 20,
    "name": "C/ GRAN DE GRu00c0CIA, 37",
    "post_code": "08012",
    "lat": 41.3989151,
    "lng": 2.1564253,
    "district": "Gru00e0cia",
    "district_code": "06",
    "suburb": "la Vila de Gru00e0cia",
    "suburb_code": "31"
  },
  {
    "station_id": "511",
    "status": "EMPTY",
    "num_bikes_available": 0,
    "num_docks_available": 15,
    "name": "C/ GRAN DE GRu00c0CIA, 91",
    "post_code": "08012",
    "lat": 41.4006862,
    "lng": 2.1543317,
    "district": "Gru00e0cia",
    "district_code": "06",
    "suburb": "la Vila de Gru00e0cia",
    "suburb_code": "31"
  },
  {
    "station_id": "512",
    "status": "IN_SERVICE",
    "num_bikes_available": 4,
    "num_docks_available": 22,
    "name": "C/ D'ALACANT, 12",
    "post_code": "08017",
    "lat": 41.4000778,
    "lng": 2.1326911,
    "district": "Sarriu00e0-Sant Gervasi",
    "district_code": "05",
    "suburb": "les Tres Torres",
    "suburb_code": "24"
  },
  {
    "station_id": "513",
    "status": "IN_SERVICE",
    "num_bikes_available": 3,
    "num_docks_available": 22,
    "name": "VIA AUGUSTA, 317",
    "post_code": "08017",
    "lat": 41.399017,
    "lng": 2.124329,
    "district": "Sarriu00e0-Sant Gervasi",
    "district_code": "05",
    "suburb": "Sarriu00e0",
    "suburb_code": "23"
  },
  {
    "station_id": "514",
    "status": "IN_SERVICE",
    "num_bikes_available": 3,
    "num_docks_available": 11,
    "name": "C/ ARAGu00d3, 614",
    "post_code": "08018",
    "lat": 41.4095069,
    "lng": 2.1885055,
    "district": "Sant Martu00ed",
    "district_code": "10",
    "suburb": "el Clot",
    "suburb_code": "65"
  },
  {
    "station_id": "515",
    "status": "IN_SERVICE",
    "num_bikes_available": 8,
    "num_docks_available": 15,
    "name": "C/ SANT ADRIu00c0, 43",
    "post_code": "08030",
    "lat": 41.4352071,
    "lng": 2.1948002,
    "district": "Sant Andreu",
    "district_code": "09",
    "suburb": "el Bon Pastor",
    "suburb_code": "59"
  },
  {
    "station_id": "516",
    "status": "IN_SERVICE",
    "num_bikes_available": 13,
    "num_docks_available": 7,
    "name": "C/ SANT ADRIu00c0, 88",
    "post_code": "08030",
    "lat": 41.4354601,
    "lng": 2.2001569,
    "district": "Sant Andreu",
    "district_code": "09",
    "suburb": "el Bon Pastor",
    "suburb_code": "59"
  },
  {
    "station_id": "517",
    "status": "IN_SERVICE",
    "num_bikes_available": 6,
    "num_docks_available": 14,
    "name": "AV. RASOS DE PEGUERA, 10",
    "post_code": "08033",
    "lat": 41.462095,
    "lng": 2.178959,
    "district": "Nou Barris",
    "district_code": "08",
    "suburb": "Ciutat Meridiana",
    "suburb_code": "55"
  },
  {
    "station_id": "518",
    "status": "IN_SERVICE",
    "num_bikes_available": 1,
    "num_docks_available": 24,
    "name": "C/ LLOBREGu00d3S, 115",
    "post_code": "08032",
    "lat": 41.4246885,
    "lng": 2.1570492,
    "district": "Horta-Guinardu00f3",
    "district_code": "07",
    "suburb": "el Carmel",
    "suburb_code": "37"
  },
  {
    "station_id": "519",
    "status": "IN_SERVICE",
    "num_bikes_available": 15,
    "num_docks_available": 8,
    "name": "C/ PEDRELL, 52",
    "post_code": "08032",
    "lat": 41.4246548,
    "lng": 2.166289,
    "district": "Horta-Guinardu00f3",
    "district_code": "07",
    "suburb": "la Font d'en Fargues",
    "suburb_code": "36"
  }
]
